Date Last Researched,Country/Area,Project Name,Unit Name,Project Name in Local Language / Script,Other Name(s),Capacity (MW),Technology,Status,Status Details,Latest Activity,Start year,Retired year,Operator,Operator Name in Local Language / Script,Owner,Owner Name in Local Language / Script,Employment Notes,Hydrogen,Latitude,Longitude,Location accuracy,City,"Local area (taluk, county)","Major area (prefecture, district)",State/Province,Subregion,Region,Other IDs (location),Other IDs (unit/phase),GEM location ID,GEM unit ID,Wiki URL
1.5.2023,El Salvador,Ahuachapán geothermal power plant,3,Central geotérmica Ahuachapán,,35,flash steam - single,operating,,,1980,,LaGeo,,LaGeo [100%],,,,13.9202,-89.8174,exact,Ahuachapan,Municipio de Ahuachapán,,Departamento de Ahuachapán,Latin America and the Caribbean,Americas,World Resources Institute: GEODB0043615,,L100000700001,G100000700003,https://gem.wiki/Ahuachapán_geothermal_power_plant
1.5.2023,El Salvador,Ahuachapán geothermal power plant,1,Central geotérmica Ahuachapán,,30,flash steam - single,operating,,,1975,,LaGeo,,LaGeo [100%],,,,13.9202,-89.8174,exact,Ahuachapan,Municipio de Ahuachapán,,Departamento de Ahuachapán,Latin America and the Caribbean,Americas,World Resources Institute: GEODB0043615,,L100000700001,G100000700001,https://gem.wiki/Ahuachapán_geothermal_power_plant
1.5.2023,El Salvador,Ahuachapán geothermal power plant,2,Central geotérmica Ahuachapán,,30,flash steam - single,operating,,,1976,,LaGeo,,LaGeo [100%],,,,13.9202,-89.8174,exact,Ahuachapan,Municipio de Ahuachapán,,Departamento de Ahuachapán,Latin America and the Caribbean,Americas,World Resources Institute: GEODB0043615,,L100000700001,G100000700002,https://gem.wiki/Ahuachapán_geothermal_power_plant
12.3.2024,Kenya,Akiira One geothermal power plant,1,,,70,binary cycle,pre-construction,,,2025,,Akiira Geothermal LTD,,Frontier Energy [100%],,,,-0.3024,36.0805,approximate,,,,Nakuru,Sub-Saharan Africa,Africa,,,L100000700002,G100000700004,https://gem.wiki/Akiira_One_geothermal_power_plant
12.3.2024,Kenya,Akiira One geothermal power plant,2,,,70,binary cycle,pre-construction,,,2025,,Akiira Geothermal LTD,,Frontier Energy [100%],,,,-0.3024,36.0805,approximate,,,,Nakuru,Sub-Saharan Africa,Africa,,,L100000700002,G100000700005,https://gem.wiki/Akiira_One_geothermal_power_plant
4.5.2023,Türkiye,Alaşehir 1 geothermal power plant,1,,,45,flash steam - double,operating,,,2015,,Zorlu Enerji,,Zorlu Enerji [100%],,,,38.4002,28.4311,exact,Manisa,Alaşehir,,,Western Asia,Asia,World Resources Institute: WRI1018958,,L100000700003,G100000700007,https://gem.wiki/Alaşehir_1_geothermal_power_plant
14.3.2024,Türkiye,Alaşehir 3 geothermal power plant,--,,,50,unknown type,pre-construction,,,,,,,Zorlu Enerji [100%],,,,38.4002,28.4311,approximate,,,Alaşehir,Manisa,Western Asia,Asia,,,L100000700242,G100000700432,https://gem.wiki/Alaşehir_3_geothermal_power_plant
13.3.2024,Ethiopia,Aluto Langano geothermal power plant,1,,,35,unknown type,construction,,,,,Ethiopian Electric Power (EEP),,Ethiopian Electric Power (EEP) [100%],,,,7.7888,38.7952,exact,,,Arsi,Oromia Region,Sub-Saharan Africa,Africa,,,L100000700004,G100000700008,https://gem.wiki/Aluto_Langano_geothermal_power_plant
13.3.2024,Ethiopia,Aluto Langano geothermal power plant,2,,,35,unknown type,construction,,,,,Ethiopian Electric Power (EEP),,Ethiopian Electric Power (EEP) [100%],,,,7.7888,38.7952,exact,,,Arsi,Oromia Region,Sub-Saharan Africa,Africa,,,L100000700004,G100001005193,https://gem.wiki/Aluto_Langano_geothermal_power_plant
13.3.2024,Philippines,Amacan geothermal power plant,--,,,50,unknown type,pre-construction,,,,,,,Energy Development CORP (EDC) [100%],,,,7.5113,125.9569,approximate,,Mawab,,Davao de Oro,South-eastern Asia,Asia,,,L100000700225,G100000700406,https://gem.wiki/Amacan_geothermal_power_plant
9.5.2023,Indonesia,Arrow Lampung geothermal power plant,--,,,50,unknown type,cancelled - inferred 4 y,,,,,Arrow Resources Development,,Arrow Resources Development [100%],,,,-4.5846,105.3231,approximate,,,,Lampung,South-eastern Asia,Asia,,,L100000700005,G100000700009,https://gem.wiki/Arrow_Lampung_geothermal_power_plant
3.5.2023,Philippines,Bac-Man geothermal power plant,Bacon-Manito 1.1,,,55,flash steam - single,operating,,,1993,,Energy Development CORP (EDC),,Energy Development CORP (EDC) [100%],,,,13.0547,123.9678,exact,Sorsogon City,,,Sorsogon,South-eastern Asia,Asia,World Resources Institute: WRI1001889,,L100000700006,G100000700010,https://gem.wiki/Bac-Man_geothermal_power_plant
3.5.2023,Philippines,Bac-Man geothermal power plant,Bacon-Manito 1.2,,,55,flash steam - single,operating,,,1993,,Energy Development CORP (EDC),,Energy Development CORP (EDC) [100%],,,,13.0547,123.9678,exact,Sorsogon City,,,Sorsogon,South-eastern Asia,Asia,World Resources Institute: WRI1001889,,L100000700006,G100000700011,https://gem.wiki/Bac-Man_geothermal_power_plant
2.5.2023,Italy,Bagnore geothermal power plant,4,Centrale geotermica Bagnore,,40,dry steam,operating,,,2014,,Enel Green Power,,Enel Green Power [100%],,,,42.8416,11.5588,exact,,Grosseto,,Tuscany,Southern Europe,Europe,World Resources Institute: WRI1021456,,L100000700007,G100000700012,https://gem.wiki/Bagnore_geothermal_power_plant
13.3.2024,Indonesia,Banten geothermal power plant,--,,Banten Prospect,110,unknown type,pre-construction,,,,,PT Sintesa Green Energy,,PT Sintesa Green Energy [100%],,,,-6.326,106.1161,approximate,,Pandeglang,Pandeglang Regency,Banten,South-eastern Asia,Asia,,,L100000700008,G100000700013,https://gem.wiki/Banten_geothermal_power_plant
12.3.2024,Kenya,Baringo-Silali geothermal power plant,Korosi,,,100,unknown type,pre-construction,,,,,Geothermal Development Company (GDC),,Geothermal Development Company (GDC) [100%],,,,1.1689,36.1726,approximate,,Mount Silali,,Baringo Province,Sub-Saharan Africa,Africa,,,L100000700009,G100000700015,https://gem.wiki/Baringo-Silali_geothermal_power_plant
12.3.2024,Kenya,Baringo-Silali geothermal power plant,Paka,,,100,unknown type,pre-construction,,,,,Geothermal Development Company (GDC),,Geothermal Development Company (GDC) [100%],,,,1.1689,36.1726,approximate,,Mount Silali,,Baringo Province,Sub-Saharan Africa,Africa,,,L100000700009,G100000700014,https://gem.wiki/Baringo-Silali_geothermal_power_plant
12.3.2024,Kenya,Baringo-Silali geothermal power plant,Silali,,,100,unknown type,pre-construction,,,,,Geothermal Development Company (GDC),,Geothermal Development Company (GDC) [100%],,,,1.1689,36.1726,approximate,,Mount Silali,,Baringo Province,Sub-Saharan Africa,Africa,,,L100000700009,G100000700016,https://gem.wiki/Baringo-Silali_geothermal_power_plant
13.3.2024,Indonesia,Baturaden geothermal power plant,Future units,,"Baturaden-Slamet, Wkp Baturraden",170,unknown type,pre-construction,,,2025,,,,PT Trinergy Mandiri International [11%]; PT Nirwana Suci Abadi [89%],,,,-7.3001,109.2168,approximate,,,,Central Java,South-eastern Asia,Asia,,,L100000700199,G100000700343,https://gem.wiki/Baturaden_geothermal_power_plant
13.3.2024,Indonesia,Baturaden geothermal power plant,1,,"Baturaden-Slamet, Wkp Baturraden",50,unknown type,construction,,,,,,,PT Trinergy Mandiri International [11%]; PT Nirwana Suci Abadi [89%],,,,-7.3001,109.2168,approximate,,,,Central Java,South-eastern Asia,Asia,,,L100000700199,G100000700342,https://gem.wiki/Baturaden_geothermal_power_plant
13.3.2024,Philippines,Baua-Sikaw geothermal power plant,--,,,61,unknown type,pre-construction,,,,,,,Pan Pacific Power Phillippines CORP [100%],,,,18.3822,122.1445,approximate,,Santa Ana,,Cagayan,South-eastern Asia,Asia,,,L100000700226,G100000700409,https://gem.wiki/Baua-Sikaw_geothermal_power_plant
1.5.2023,El Salvador,Berlín geothermal power plant,--,Central geotérmica Berlín,,40,flash steam - single,operating,,,2007,,LaGeo,,LaGeo [100%],,,,13.5248,-88.5073,exact,Berlín,,,Departamento de Usulután,Latin America and the Caribbean,Americas,World Resources Institute: GEODB0043616,,L100000700010,G100000700017,https://gem.wiki/Berlín_geothermal_power_plant
3.5.2023,United States,Big Geysers geothermal plant,13,,Geysers geothermal plant U13,138,dry steam,operating,,,1980,,Geysers Power Co LLC,,Calpine CORP [100%],,,,38.777,-122.745,exact,,Sonoma County,,California,Northern America,Americas,"EIA: 286, World Resources Institute: USA0000286",,L100000700011,G100000700018,https://gem.wiki/Big_Geysers_geothermal_plant
13.3.2024,Philippines,Biliran geothermal power plant,--,,,50,unknown type,pre-construction,,,2025,,,,Biliran Geothermal INC [100%],,,,11.5993,124.4839,approximate,,Naval,,Biliran,South-eastern Asia,Asia,,,L100000700227,G100000700410,https://gem.wiki/Biliran_geothermal_power_plant
2.5.2023,Iceland,Bitra geothermal power plant,--,,,135,unknown type,cancelled - inferred 4 y,,,,,Orkuveita Reykjavikur,,Orkuveita Reykjavikur [100%],,,,63.8576,-21.3844,approximate,,,Ölfus,Southern Region,Northern Europe,Europe,,,L100000700012,G100000700019,https://gem.wiki/Bitra_geothermal_power_plant
2.5.2023,Iceland,Bjarnarflag geothermal power plant,1,,,45,unknown type,cancelled - inferred 4 y,,,,,Landsvirkjun,,Landsvirkjun [100%],,,,65.6432,-16.8462,exact,,Þingeyjarsveit,Northeastern Region,,Northern Europe,Europe,,,L100000700013,G100000700020,https://gem.wiki/Bjarnarflag_geothermal_power_plant
2.5.2023,Iceland,Bjarnarflag geothermal power plant,2,,,45,unknown type,cancelled - inferred 4 y,,,,,Landsvirkjun,,Landsvirkjun [100%],,,,65.6432,-16.8462,exact,,Þingeyjarsveit,Northeastern Region,,Northern Europe,Europe,,,L100000700013,G100000700021,https://gem.wiki/Bjarnarflag_geothermal_power_plant
1.4.2024,United States,Black Rock geothermal power plant,--,,Black Rock Geothermal Project (BRGP),77,,pre-construction,,,,,,,Black Rock Geothermal LLC,,,,33.1493115,-115.6278498,approximate,,Imperial County,,California,Northern America,Americas,,,L100001004552,G100001005340,https://www.gem.wiki/Black_Rock_geothermal_power_plant
13.3.2024,Indonesia,Blawan Ijen geothermal project,2,,,55,unknown type,pre-construction,,,,,PT Medco Power Indonesia,,PT Medco Power Indonesia [51%]; Ormat Technology INC [49%],,,,-7.9735,114.1708,approximate,,,Blawan Ijen,East Java,South-eastern Asia,Asia,,,L100000700014,G100000700023,https://gem.wiki/Blawan_Ijen_geothermal_project
13.3.2024,Indonesia,Blawan Ijen geothermal project,1,,,34,unknown type,construction,,,2025,,PT Medco Power Indonesia,,PT Medco Power Indonesia [51%]; Ormat Technology INC [49%],,,,-7.9768,114.1883,approximate,,,Blawan Ijen,East Java,South-eastern Asia,Asia,,,L100000700014,G100000700022,https://gem.wiki/Blawan_Ijen_geothermal_project
3.5.2023,United States,Blue Mountain geothermal plant,--,,"Faulkner I, NGP Blue Mountain",50,binary cycle,operating,,,2010,,,,AltaRock Energy [100%],,,,40.9952,-118.142,exact,,Humboldt County,,Nevada,Northern America,Americas,"EIA: 56982, World Resources Institute: USA0056982",,L100000700015,G100000700024,https://gem.wiki/Blue_Mountain_geothermal_plant
3.5.2023,United States,Blundell 1 geothermal plant,--,,,31,flash steam - unknown,operating,,,1984,,PacifiCorp,,PacifiCorp [100%],,,,38.4889,-112.8533,exact,,Beaver County,,Utah,Northern America,Americas,"EIA: 299, World Resources Institute: USA0000299",,L100000700016,G100000700025,https://gem.wiki/Blundell_1_geothermal_plant
15.5.2023,United States,Blundell 3 geothermal plant,--,,,30,unknown type,cancelled,,,,,PacifiCorp,,PacifiCorp [100%],,,,38.4889,-112.8533,exact,,Beaver County,,Utah,Northern America,Americas,EIA: 299,,L100000700017,G100000700026,https://gem.wiki/Blundell_3_geothermal_plant
13.3.2024,Costa Rica,Borinquen geothermal power project,1,Central geotérmica Borinquen,,55,unknown type,construction,,,2027,,Costa Rican Electricity Institute (ICE),,Costa Rican Electricity Institute (ICE) [100%],,,,10.6344,-85.4397,approximate,,,Liberia,Guanacaste,Latin America and the Caribbean,Americas,,,L100000700018,G100000700027,https://gem.wiki/Borinquen_geothermal_power_project
13.3.2024,Costa Rica,Borinquen geothermal power project,2,Central geotérmica Borinquen,,55,unknown type,pre-construction,,,2027,,Costa Rican Electricity Institute (ICE),,Costa Rican Electricity Institute (ICE) [100%],,,,10.6344,-85.4397,approximate,,,Liberia,Guanacaste,Latin America and the Caribbean,Americas,,,L100000700018,G100000700028,https://gem.wiki/Borinquen_geothermal_power_project
3.5.2023,United States,Bottle Rock Power geothermal plant,--,,,55,flash steam - single,operating,,,1985,,Bottle Rock Power LLC,,Baseload Clean Energy Partners [100%],,,,38.8348,-122.7677,exact,,Lake County,,California,Northern America,Americas,"EIA: 902, World Resources Institute: USA0000902",,L100000700019,G100000700029,https://gem.wiki/Bottle_Rock_Power_geothermal_plant
13.3.2024,Uganda,Buranga geothermal power plant,--,,,100,unknown type,pre-construction,,,2025,,Gids Consult LTD,,Gids Consult Ltd [100%],,,,0.8332,30.1664,approximate,,,,Mongiro,Sub-Saharan Africa,Africa,,,L100000700021,G100000700031,https://gem.wiki/Buranga_geothermal_power_plant
13.3.2024,Peru,Cabanaconde geothermal power plant,--,Central geotérmica Cabanaconde,,100,unknown type,pre-construction,,,2027,,Energy Development CORP (EDC),,Energy Development CORP (EDC) [100%],,,,-15.622,-71.9798,approximate,,Cabanaconde,Caylloma,Arequipa,Latin America and the Caribbean,Americas,,,L100000700022,G100000700032,https://gem.wiki/Cabanaconde_geothermal_power_plant
13.3.2024,Philippines,Cagua-Baua geothermal power plant,--,,,45,unknown type,pre-construction,,,,,,,Pan Pacific Power Phillippines CORP [100%],,,,18.3822,122.1445,approximate,,Santa Ana,,Cagayan,South-eastern Asia,Asia,,,L100000700228,G100000700411,https://gem.wiki/Cagua-Baua_geothermal_power_plant
3.5.2023,United States,Calistoga geothermal plant,1,,Geysers geothermal plant U19 (Phase 2),88,dry steam,operating,,,1984,,Geysers Power Co LLC,,Geysers Power Co LLC [100%],,,,38.7879,-122.7434,exact,,Lake County,,California,Northern America,Americas,"EIA: 50066, World Resources Institute: USA0050066",,L100000700023,G100000700034,https://gem.wiki/Calistoga_geothermal_plant
3.5.2023,United States,Calistoga geothermal plant,2,,Geysers geothermal plant U19 (Phase 2),88,dry steam,operating,,,1984,,Geysers Power Co LLC,,Geysers Power Co LLC [100%],,,,38.7894,-122.7455,exact,,Lake County,,California,Northern America,Americas,"EIA: 50066, World Resources Institute: USA0050066",,L100000700023,G100000700033,https://gem.wiki/Calistoga_geothermal_plant
1.4.2024,United States,Cape Station geothermal power plant,future units,,,300,EGS,pre-construction,Drilling at Cape Station began in June 2023.,,2028,,Fervo Energy,,Fervo Energy,,"""The first two phases of Cape Station are expected to create approximately 6,602 temporary jobs during construction and 161 full-time operational jobs, resulting in more than $437 million in earned wages. Fervo is committed to sourcing jobs from the local labor pool when possible.""",,38.4693866,-112.9276109,approximate,,Beaver County,,Utah,Northern America,Americas,,,L100001004553,G100001005342,https://www.gem.wiki/Cape_Station_geothermal_power_plant
1.4.2024,United States,Cape Station geothermal power plant,1,,,100,EGS,construction,Drilling at Cape Station began in June 2023.,,2026,,Fervo Energy,,Fervo Energy,,"""The first two phases of Cape Station are expected to create approximately 6,602 temporary jobs during construction and 161 full-time operational jobs, resulting in more than $437 million in earned wages. Fervo is committed to sourcing jobs from the local labor pool when possible.""",,38.4693866,-112.9276109,approximate,,Beaver County,,Utah,Northern America,Americas,,,L100001004553,G100001005341,https://www.gem.wiki/Cape_Station_geothermal_power_plant
11.5.2023,United States,Casa Diablo 4 geothermal power plant,--,,Mammoth Complex,30,binary cycle,operating,,,2022,,Ormat Technology INC,,Ormat Technology INC [100%],,,,37.6449,-118.9149,exact,,Mono County,,California,Northern America,Americas,EIA: 63490,,L100000700258,G100000700471,https://gem.wiki/Casa_Diablo_4_geothermal_power_plant
2.5.2023,Nicaragua,Casita - San Cristóbal geothermal power plant,--,Central geotérmica Casita - San Cristóbal,Casita geothermal project,35,unknown type,cancelled - inferred 4 y,,,,,Empresa Nicaragüense de Electricidad (ENEL),,Empresa Nicaragüense de Electricidad (ENEL) [50%]; Polaris Energy Nicaragua [50%],,,,12.7231,-87.0836,approximate,,,San Cristóbal,Chinadega,Latin America and the Caribbean,Americas,,,L100000700024,G100000700035,https://gem.wiki/Casita_-_San_Cristóbal_geothermal_power_plant
3.5.2023,United States,CE Leathers geothermal plant,1,,Leathers geothermal facility,46,flash steam - double,operating,,,1989,,CalEnergy Operating CORP,,CalEnergy Operating CORP [100%],,,,33.1779,-115.565,exact,,Imperial County,,California,Northern America,Americas,"EIA: 10631, World Resources Institute: USA0010631",,L100000700025,G100000700036,https://gem.wiki/CE_Leathers_geothermal_plant
1.5.2023,Chile,Cerro Pabellón geothermal power plant,3,Central geotérmica Cerro Pabellón,,33,binary cycle,operating,,,2021,,Geotérmica Del Norte (GDN),,Empresa Nacional del Petróleo [50%]; Enel Chile [50%],,,,-21.8576,-68.1515,exact,Ollagüe,Provincia de El Loa,,Antofagasta Region,Latin America and the Caribbean,Americas,,,L100000700026,G100000700037,https://gem.wiki/Cerro_Pabellón_geothermal_power_plant
2.5.2023,Mexico,Cerro Prieto 1 geothermal power plant,1,Central geotérmica Cerro Prieto 1,,38,flash steam - single,retired,,,1973,2016,Comision Federal De Electricidad,,Comision Federal De Electricidad [100%],,,,32.3985,-115.2379,exact,,Municipio de Mexicali,,Baja California,Latin America and the Caribbean,Americas,World Resources Institute: MEX0006611,,L100000700027,G100000700038,https://gem.wiki/Cerro_Prieto_1_geothermal_power_plant
2.5.2023,Mexico,Cerro Prieto 1 geothermal power plant,2,Central geotérmica Cerro Prieto 1,,38,flash steam - single,retired,,,1973,2016,Comision Federal De Electricidad,,Comision Federal De Electricidad [100%],,,,32.3985,-115.2379,exact,,Municipio de Mexicali,,Baja California,Latin America and the Caribbean,Americas,World Resources Institute: MEX0006611,,L100000700027,G100000700039,https://gem.wiki/Cerro_Prieto_1_geothermal_power_plant
2.5.2023,Mexico,Cerro Prieto 1 geothermal power plant,3,Central geotérmica Cerro Prieto 1,,38,flash steam - single,retired,,,1979,2016,Comision Federal De Electricidad,,Comision Federal De Electricidad [100%],,,,32.3985,-115.2379,exact,,Municipio de Mexicali,,Baja California,Latin America and the Caribbean,Americas,World Resources Institute: MEX0006611,,L100000700027,G100000700040,https://gem.wiki/Cerro_Prieto_1_geothermal_power_plant
2.5.2023,Mexico,Cerro Prieto 1 geothermal power plant,4,Central geotérmica Cerro Prieto 1,,38,flash steam - single,retired,,,1979,2016,Comision Federal De Electricidad,,Comision Federal De Electricidad [100%],,,,32.3985,-115.2379,exact,,Municipio de Mexicali,,Baja California,Latin America and the Caribbean,Americas,World Resources Institute: MEX0006611,,L100000700027,G100000700041,https://gem.wiki/Cerro_Prieto_1_geothermal_power_plant
2.5.2023,Mexico,Cerro Prieto 1 geothermal power plant,5,Central geotérmica Cerro Prieto 1,,30,flash steam - single,operating,,,1982,,Comision Federal De Electricidad,,Comision Federal De Electricidad [100%],,,,32.3985,-115.2379,exact,,Municipio de Mexicali,,Baja California,Latin America and the Caribbean,Americas,World Resources Institute: MEX0006611,,L100000700027,G100000700042,https://gem.wiki/Cerro_Prieto_1_geothermal_power_plant
2.5.2023,Mexico,Cerro Prieto 2 geothermal power plant,6,Central geotérmica Cerro Prieto 2,,110,flash steam - double,operating,,,1986,,Comision Federal De Electricidad,,Comision Federal De Electricidad [100%],,,,32.4047,-115.2113,exact,,Municipio de Mexicali,,Baja California,Latin America and the Caribbean,Americas,World Resources Institute: MEX0001868,,L100000700028,G100000700043,https://gem.wiki/Cerro_Prieto_2_geothermal_power_plant
2.5.2023,Mexico,Cerro Prieto 2 geothermal power plant,7,Central geotérmica Cerro Prieto 2,,110,flash steam - double,operating,,,1987,,Comision Federal De Electricidad,,Comision Federal De Electricidad [100%],,,,32.4047,-115.2113,exact,,Municipio de Mexicali,,Baja California,Latin America and the Caribbean,Americas,World Resources Institute: MEX0001868,,L100000700028,G100000700044,https://gem.wiki/Cerro_Prieto_2_geothermal_power_plant
2.5.2023,Mexico,Cerro Prieto 3 geothermal power plant,8,Central geotérmica Cerro Prieto 3,,110,flash steam - double,operating,,,1986,,Comision Federal De Electricidad,,Comision Federal De Electricidad,,,,32.4126,-115.2433,exact,,Municipio de Mexicali,,Baja California,Latin America and the Caribbean,Americas,World Resources Institute: MEX0001868,,L100000700029,G100000700045,https://gem.wiki/Cerro_Prieto_3_geothermal_power_plant
2.5.2023,Mexico,Cerro Prieto 3 geothermal power plant,9,Central geotérmica Cerro Prieto 3,,110,flash steam - double,operating,,,1987,,Comision Federal De Electricidad,,Comision Federal De Electricidad,,,,32.4126,-115.2433,exact,,Municipio de Mexicali,,Baja California,Latin America and the Caribbean,Americas,World Resources Institute: MEX0001868,,L100000700029,G100000700046,https://gem.wiki/Cerro_Prieto_3_geothermal_power_plant
9.4.2024,Mexico,Cerro Prieto 5 geothermal power plant,10,Central geotérmica Cerro Prieto 5,,50,flash steam - double,operating,,,2012,,Comision Federal De Electricidad,,Comision Federal De Electricidad,,,,32.3916937,-115.2691486,exact,,,Ejido Hidalgo,Baja California,Latin America and the Caribbean,Americas,,,L100000700030,G100000700047,https://gem.wiki/Cerro_Prieto_5_geothermal_power_plant
9.4.2024,Mexico,Cerro Prieto 5 geothermal power plant,11,Central geotérmica Cerro Prieto 5,,50,flash steam - double,operating,,,2012,,Comision Federal De Electricidad,,Comision Federal De Electricidad,,,,32.3916937,-115.2691486,exact,,,Ejido Hidalgo,Baja California,Latin America and the Caribbean,Americas,,,L100000700030,G100000700048,https://gem.wiki/Cerro_Prieto_5_geothermal_power_plant
13.3.2024,Ecuador,Chachimbiro geothermal power plant,--,Proyecto geotérmico Chachimbiro,,50,unknown type,pre-construction,,,2026,,Corporación Eléctrica del Ecuador (CELEC EP),,Corporación Eléctrica del Ecuador (CELEC EP) [100%],,,,0.4599,-78.2364,approximate,,,Imbabura,Urcuquí,Latin America and the Caribbean,Americas,,,L100000700031,G100000700049,https://gem.wiki/Chachimbiro_geothermal_power_plant
13.3.2024,United States,Churchill Valley geothermal power plant,--,,Fervo Churchill Valley,115,unknown type,shelved,,,,,,,East Bay Community Energy (EBCE) [100%],,,,39.5322,-118.2545,approximate,,Churchill County,,Nevada,Northern America,Americas,,,L100000700260,G100000700473,https://gem.wiki/Churchill_Valley_geothermal_power_plant
3.5.2023,United States,Cobb Creek geothermal plant,12,,Geysers geothermal plant U12,110,dry steam,operating,,,1979,,Geysers Power Co LLC,,Calpine CORP [100%],,,,38.777,-122.745,exact,,Sonoma County,,California,Northern America,Americas,"EIA: 286, World Resources Institute: USA0000286",,L100000700033,G100000700051,https://gem.wiki/Cobb_Creek_geothermal_plant
13.3.2024,Ethiopia,Corbetti geothermal power plant,2,,,100,unknown type,pre-construction,,,,,Corbetti Geothermal,,Berkeley Energy [33%]; Reykjavik Geothermal [33%]; InfraCo Africa [33%],,,,7.1819,38.4371,approximate,,,Shashamane,Oromiya,Sub-Saharan Africa,Africa,,,L100000700034,G100000700053,https://gem.wiki/Corbetti_geothermal_power_plant
13.3.2024,Ethiopia,Corbetti geothermal power plant,1,,,50,unknown type,pre-construction,,,2027,,Corbetti Geothermal,,Berkeley Energy [33%]; Reykjavik Geothermal [33%]; InfraCo Africa [33%],,,,7.1819,38.4371,approximate,,,Shashamane,Oromiya,Sub-Saharan Africa,Africa,,,L100000700034,G100000700052,https://gem.wiki/Corbetti_geothermal_power_plant
3.5.2023,United States,Coso BLM geothermal plant,GEN1-3,,,90,flash steam - double,operating,,,1987,,Coso Operating Co LLC,,Atlantica Sustainable Infrastructure [100%],,,,36.0372,-117.7981,exact,,Inyo County,,California,Northern America,Americas,"World Resources Institute: USA0010875, EIA: 10873",,L100000700035,G100000700054,https://gem.wiki/Coso_BLM_geothermal_plant
15.5.2023,United States,Crump Geyser geothermal plant,--,,,30,unknown type,cancelled - inferred 4 y,,,,,,,Ormat Technology INC [50%]; Nevada Geothermal Power CO [50%],,,,42.1774,-119.8986,approximate,Adel,,,Oregon,Northern America,Americas,,,L100000700036,G100000700055,https://gem.wiki/Crump_Geyser_geothermal_plant
14.3.2024,United States,D-J Basin geothermal power plant,Future units,,,395,unknown type,announced,,,,,Geothermal Technologies INC,,,,,,40.5953,-104.6008,approximate,,Weld County,,Colorado,Northern America,Americas,,,L100000700261,G100000700475,https://gem.wiki/D-J_Basin_geothermal_power_plant
1.4.2024,Philippines,Daklan geothermal power plant,--,,,51,,announced,,,,,,,Philippine Geothermal Production Company Inc,,"Three of PGPC's projects are expected to create a total of 1,500 jobs for Filipino workers during exploration, development, well drilling, and commercial operations.",,16.5815472,120.722618,approximate,Abiang,Atok,Benguet,,South-eastern Asia,Asia,"World Resources Institute: WRI1000750, World Resources Institute: WRI1000751",,L100001004542,G100001005329,https://www.gem.wiki/Daklan_geothermal_power_plant
8.5.2023,Indonesia,Darajat geothermal power plant,3,,,121,unknown type,operating,,,2009,,Star Energy Geothermal,,Star Energy Geothermal [100%],,,,-7.2173,107.7394,exact,Padaawas,Pasirwangi,Garut Regency,West Java,South-eastern Asia,Asia,"World Resources Institute: WRI1000750, World Resources Institute: WRI1000751",,L100000700037,G100000700058,https://gem.wiki/Darajat_geothermal_power_plant
8.5.2023,Indonesia,Darajat geothermal power plant,2,,,90,unknown type,operating,,,2000,,Star Energy Geothermal,,Star Energy Geothermal [100%],,,,-7.2173,107.7394,exact,Padaawas,Pasirwangi,Garut Regency,West Java,South-eastern Asia,Asia,"World Resources Institute: WRI1000750, World Resources Institute: WRI1000751",,L100000700037,G100000700057,https://gem.wiki/Darajat_geothermal_power_plant
8.5.2023,Indonesia,Darajat geothermal power plant,1,,,55,dry steam,operating,,,1994,,,,Star Energy Geothermal [100%],,,,-7.2173,107.7394,exact,Padaawas,Pasirwangi,Garut Regency,West Java,South-eastern Asia,Asia,,,L100000700037,G100000700056,https://gem.wiki/Darajat_geothermal_power_plant
13.3.2024,Philippines,Dauin geothermal power plant,--,,,40,unknown type,announced,,,2025,,Energy Development CORP (EDC),,Energy Development CORP (EDC) [100%],,,,9.2304,123.2008,approximate,,,Dauin,Negros Oriental,South-eastern Asia,Asia,"World Resources Institute: USA0010632, EIA: 10632",,L100000700038,G100000700059,https://gem.wiki/Dauin_geothermal_power_plant
3.5.2023,United States,Del Ranch geothermal project,--,,A W Hoch geothermal plant,46,flash steam - double,operating,,,1988,,CalEnergy Operating CORP,,CalEnergy Operating CORP [100%],,,,33.1646,-115.616,exact,,Imperial County,,California,Northern America,Americas,World Resources Institute: WRI1000752,,L100000700039,G100000700060,https://gem.wiki/Del_Ranch_geothermal_project
9.5.2023,Indonesia,Dieng geothermal power plant,Future units,,,270,unknown type,announced,,,2030,,PT Geo Dipa Energi (GDE),,PT Geo Dipa Energi (GDE) [100%],,,,-7.2261,109.8975,exact,,Wonosobo,,Central Java,South-eastern Asia,Asia,World Resources Institute: WRI1000752,,L100000700040,G100000700064,https://gem.wiki/Dieng_geothermal_power_plant
8.5.2023,Indonesia,Dieng geothermal power plant,1,,,60,flash steam - single,operating,,,1998,,PT Geo Dipa Energi (GDE),,PT Geo Dipa Energi (GDE) [100%],,,,-7.2261,109.8975,exact,,Wonosobo,,Central Java,South-eastern Asia,Asia,World Resources Institute: WRI1000752,,L100000700040,G100000700061,https://gem.wiki/Dieng_geothermal_power_plant
13.3.2024,Indonesia,Dieng geothermal power plant,2,,,55,unknown type,construction,,,2025,,PT Geo Dipa Energi (GDE),,PT Geo Dipa Energi (GDE) [100%],,,,-7.2261,109.8975,exact,,Wonosobo,,Central Java,South-eastern Asia,Asia,World Resources Institute: WRI1000752,,L100000700040,G100000700062,https://gem.wiki/Dieng_geothermal_power_plant
13.3.2024,Indonesia,Dieng geothermal power plant,3,,,55,unknown type,pre-construction,,,2025,,PT Geo Dipa Energi (GDE),,PT Geo Dipa Energi (GDE) [100%],,,,-7.2261,109.8975,exact,,Wonosobo,,Central Java,South-eastern Asia,Asia,,,L100000700040,G100000700063,https://gem.wiki/Dieng_geothermal_power_plant
15.5.2023,United States,Dixie Meadows 2 Geothermal Development Project,--,,,30,binary cycle,cancelled,,,,,,,Ormat Technology INC [100%],,,,39.7905,-118.0812,exact,,Churchill County,,Nevada,Northern America,Americas,,,L100000700042,G100000700066,https://gem.wiki/Dixie_Meadows_2_Geothermal_Development_Project
4.5.2023,Türkiye,Dora 3 geothermal power plant,--,,,34,binary cycle,operating,,,2014,,,,MB Holding [100%],,,,37.857,28.0716,exact,,Köşk,,,Western Asia,Asia,World Resources Institute: WRI1018960,,L100000700043,G100000700067,https://gem.wiki/Dora_3_geothermal_power_plant
3.5.2023,United States,Eagle Rock geothermal plant,11,,Geysers geothermal plant U11,110,dry steam,operating,,,1975,,Geysers Power Co LLC,,Calpine CORP [100%],,,,38.777,-122.745,exact,,Sonoma County,,California,Northern America,Americas,"EIA: 286, World Resources Institute: USA0000286",,L100000700044,G100000700068,https://gem.wiki/Eagle_Rock_geothermal_plant
15.5.2023,United States,East Brawley geothermal plant,--,,,50,binary cycle,cancelled - inferred 4 y,,,,,,,Nevada Geothermal Power CO [100%],,,,33.0172,-115.5108,exact,Brawley,Imperial County,,California,Northern America,Americas,,,L100000700045,G100000700069,https://gem.wiki/East_Brawley_geothermal_plant
1.4.2024,Kenya,EcoCloud-G42 Mega Data Center geothermal power plant,--,,,100,unknown type,pre-construction,,,,,,,Olkaria EcoCloud,,,,-0.9116443,36.3304996,approximate,,,Olkaria,,Sub-Saharan Africa,Africa,,,L100001004453,G100001005320,https://www.gem.wiki/EcoCloud-G42_Mega_Data_Center_geothermal_power_plant
4.5.2023,Türkiye,Efeler geothermal power plant,"Galip Hoca, Efeler Gürmat-1",,,47,flash steam - double,operating,,,2009,,Güriş Inşaat ve Muhendislik; Mr. Müsfik Hamdi Yamantürk; Mogan Enerji Yatirim Holding; Gurenerji Elektrik Uretim; Güriş Holding AS,,Mogan Enerji Yatirim Holding [100%],,,,37.8848,27.6304,exact,,Germencik,,Aydin,Western Asia,Asia,"World Resources Institute: Wri1018954, World Resources Institute: WRI1018957",,L100000700046,G100000700070,https://gem.wiki/Efeler_geothermal_power_plant
4.5.2023,Türkiye,Efeler Gürmat-2 geothermal power plant,8,,,50,binary cycle,operating,,,2021,,Güriş Inşaat ve Muhendislik; Mr. Müsfik Hamdi Yamantürk; Mogan Enerji Yatirim Holding; Gurenerji Elektrik Uretim; Güriş Holding AS,,Mogan Enerji Yatirim Holding [100%],,,,37.8644,27.6441,exact,,Germencik,,Aydin,Western Asia,Asia,World Resources Institute: WRI1018954,,L100000700047,G100000700072,https://gem.wiki/Efeler_Gürmat-2_geothermal_power_plant
4.5.2023,Türkiye,Efeler Gürmat-2 geothermal power plant,1,,,47,flash steam - double,operating,,,2014,,Güriş Inşaat ve Muhendislik; Mr. Müsfik Hamdi Yamantürk; Mogan Enerji Yatirim Holding; Gurenerji Elektrik Uretim; Güriş Holding AS,,Mogan Enerji Yatirim Holding [100%],,,,37.8674,27.6477,exact,,İncirliova,,Aydin,Western Asia,Asia,World Resources Institute: WRI1018954,,L100000700047,G100000700071,https://gem.wiki/Efeler_Gürmat-2_geothermal_power_plant
2.5.2023,Iceland,Eldvörp geothermal power plant,--,,,50,unknown type,cancelled - inferred 4 y,,,,,HS Orka,,HS Orka [100%],,,,63.9713,-22.5838,approximate,,Eldvorp,Flugvallarbraut,Keflavik,Northern Europe,Europe,,,L100000700048,G100000700073,https://gem.wiki/Eldvörp_geothermal_power_plant
3.5.2023,United States,Elmore geothermal project,1,,J J Elmore geothermal plant,46,flash steam - double,operating,,,1988,,CalEnergy Operating CORP,,CalEnergy Operating CORP [100%],,,,33.1777,-115.6033,exact,,Imperial County,,California,Northern America,Americas,"World Resources Institute: USA0010634, EIA: 10634",,L100000700049,G100000700074,https://gem.wiki/Elmore_geothermal_project
2.4.2024,United States,Elmore North geothermal power plant,--,,Elmore North Geothermal Project (ENGP),140,,pre-construction,,,,,,,Elmore North Geothermal LLC,,,,33.1803616,-115.6015972,approximate,,Imperial County,,California,Northern America,Americas,,,L100001004605,G100001005403,https://www.gem.wiki/Elmore_North_geothermal_power_plant
13.3.2024,Canada,Estevan geothermal power plant,4,,,35,unknown type,announced,,,,,DEEP Earth Energy Production Corp. (DEEP),,DEEP Earth Energy Production Corp. (DEEP) [100%],,,,49.139,-102.9849,approximate,,,Estevan,Saskatchewan,Northern America,Americas,,,L100000700050,G100000700078,https://gem.wiki/Estevan_geothermal_power_plant
2.5.2023,Italy,Farinello geothermal power plant,--,Centrale geotermica Farinello,,60,dry steam,operating,,,1995,,Enel Green Power,,Enel Green Power [100%],,,,43.2388,10.9047,exact,,Pisa,,Tuscany,Southern Europe,Europe,World Resources Institute: WRI1021364,,L100000700051,G100000700079,https://gem.wiki/Farinello_geothermal_power_plant
15.5.2023,United States,Fourmile Hill geothermal project,1,,,50,unknown type,cancelled - inferred 4 y,,,,,Calpine CORP,,,,,,41.5633,-121.5708,exact,,Siskiyou County,CAL Fire Northern Region,California,Northern America,Americas,EIA: 55845,,L100000700053,G100000700081,https://gem.wiki/Fourmile_Hill_geothermal_project
3.5.2023,United States,Fumarole geothermal plant,2,,Geysers geothermal plant U9&10,110,dry steam,retired,,,1973,2006,Geysers Power Co LLC,,Calpine CORP [100%],,,,38.777,-122.745,exact,,Sonoma County,,California,Northern America,Americas,EIA: 286,,L100000700054,G100000700083,https://gem.wiki/Fumarole_geothermal_plant
3.5.2023,United States,Fumarole geothermal plant,1,,Geysers geothermal plant U9&10,55,dry steam,retired,,,1973,2006,Geysers Power Co LLC,,Calpine CORP [100%],,,,38.777,-122.745,exact,,Sonoma County,,California,Northern America,Americas,EIA: 286,,L100000700054,G100000700082,https://gem.wiki/Fumarole_geothermal_plant
3.5.2023,United States,Galena 1 geothermal plant,--,,Richard Burdette goethermal plant,30,binary cycle,operating,,,2006,,,,Ormat Technology INC [100%],,,,39.3908,-119.7546,exact,,Washoe County,,Nevada,Northern America,Americas,"EIA: 65321, World Resources Institute: USA0056321",,L100000700055,G100000700084,https://gem.wiki/Galena_1_geothermal_plant
14.3.2024,Türkiye,Germencik geothermal power plant,--,,Gurmat geothermal power plant,170,unknown type,pre-construction,,,,,Gurmat Electric Generation,,Gurmat Electric Generation [100%],,,,37.8373,27.8503,approximate,,,,Aydın,Western Asia,Asia,,,L100000700245,G100000700440,https://gem.wiki/Germencik_geothermal_power_plant
3.5.2023,United States,Grant geothermal plant,20,,Geysers geothermal plant U20,118,dry steam,operating,,,1985,,Geysers Power Co LLC,,Calpine CORP [100%],,,,38.777,-122.745,exact,,Sonoma County,,California,Northern America,Americas,"EIA: 286, World Resources Institute: USA0000286",,L100000700056,G100000700085,https://gem.wiki/Grant_geothermal_plant
14.3.2024,Türkiye,Greeneco Sarayköy geothermal plant,7,,,49,unknown type,pre-construction,,,,,,,Greeneco Enerji Elektrik Üretim AS [100%],,,,37.9346,28.7969,approximate,Sarayköy,,,Denizli,Western Asia,Asia,,,L100000700057,G100000700086,https://gem.wiki/Greeneco_Sarayköy_geothermal_plant
13.3.2024,Indonesia,Guci geothermal power plant,--,,,55,unknown type,announced,,,2024,,,,,,,,-7.0446,110.4037,approximate,,,Semarang,Central Java,South-eastern Asia,Asia,,,L100000700201,G100000700345,https://gem.wiki/Guci_geothermal_power_plant
13.3.2024,Indonesia,Gunung Geureudong geothermal power plant,Future units,,Wkp Gunung Geureudong,220,unknown type,shelved - inferred 2 y,,,,,Hitay Energy Holdings,,Hitay Energy Holdings [100%],,,,4.8106,96.8171,approximate,,,,Aceh,South-eastern Asia,Asia,,,L100000700202,G100000700346,https://gem.wiki/Gunung_Geureudong_geothermal_power_plant
10.4.2024,Indonesia,Gunung Salak geothermal power plant,1,,,55,flash steam - single,operating,,,1994,,Kamojang POMU,,AC Energy and Infrastructure Corp [19%]; Star Energy Geothermal; Electricity Generating Public CO LTD (EGCO); Star Energy Group PLC,,,,-6.7416,106.648,exact,,Bogor,Bogor Regency,West Java,South-eastern Asia,Asia,World Resources Institute: WRI1000759,,L100000700058,G100000700087,https://gem.wiki/Gunung_Salak_geothermal_power_plant
10.4.2024,Indonesia,Gunung Salak geothermal power plant,2,,,55,flash steam - single,operating,,,1994,,Kamojang POMU,,AC Energy and Infrastructure Corp [19%]; Star Energy Geothermal; Electricity Generating Public CO LTD (EGCO); Star Energy Group PLC,,,,-6.7416,106.648,exact,,Bogor,Bogor Regency,West Java,South-eastern Asia,Asia,World Resources Institute: WRI1000759,,L100000700058,G100000700088,https://gem.wiki/Gunung_Salak_geothermal_power_plant
10.4.2024,Indonesia,Gunung Salak geothermal power plant,3,,,55,flash steam - single,operating,,,,,Kamojang POMU,,AC Energy and Infrastructure Corp [19%]; Star Energy Geothermal; Electricity Generating Public CO LTD (EGCO); Star Energy Group PLC,,,,-6.7416,106.648,exact,,Bogor,Bogor Regency,West Java,South-eastern Asia,Asia,World Resources Institute: WRI1000759,,L100000700058,G100000700089,https://gem.wiki/Gunung_Salak_geothermal_power_plant
10.4.2024,Indonesia,Gunung Salak geothermal power plant,7,,,55,binary cycle,construction,,,,,Star Energy Geothermal,,AC Energy and Infrastructure Corp [19%]; Star Energy Geothermal; Electricity Generating Public CO LTD (EGCO); Star Energy Group PLC,,,,-6.741,106.673,exact,,Sukabumi,,West Java,South-eastern Asia,Asia,World Resources Institute: WRI1000759,,L100000700058,G100000700347,https://gem.wiki/Gunung_Salak_geothermal_power_plant
10.4.2024,Indonesia,Gunung Salak geothermal power plant,Dayabumi Salak Pratama - 4,,,55,flash steam - single,operating,,,1997,,Kamojang POMU,,AC Energy and Infrastructure Corp [19%]; Star Energy Geothermal; Electricity Generating Public CO LTD (EGCO); Star Energy Group PLC,,,,-6.7416,106.648,exact,,Bogor,Bogor Regency,West Java,South-eastern Asia,Asia,World Resources Institute: WRI1000759,,L100000700058,G100000700090,https://gem.wiki/Gunung_Salak_geothermal_power_plant
10.4.2024,Indonesia,Gunung Salak geothermal power plant,Dayabumi Salak Pratama - 5,,,55,flash steam - single,operating,,,1997,,Kamojang POMU,,AC Energy and Infrastructure Corp [19%]; Star Energy Geothermal; Electricity Generating Public CO LTD (EGCO); Star Energy Group PLC,,,,-6.7416,106.648,exact,,Bogor,Bogor Regency,West Java,South-eastern Asia,Asia,World Resources Institute: WRI1000759,,L100000700058,G100000700091,https://gem.wiki/Gunung_Salak_geothermal_power_plant
10.4.2024,Indonesia,Gunung Salak geothermal power plant,Dayabumi Salak Pratama - 6,,,55,flash steam - single,operating,,,1997,,Kamojang POMU,,AC Energy and Infrastructure Corp [19%]; Star Energy Geothermal; Electricity Generating Public CO LTD (EGCO); Star Energy Group PLC,,,,-6.7416,106.648,exact,,Bogor,Bogor Regency,West Java,South-eastern Asia,Asia,World Resources Institute: WRI1000759,,L100000700058,G100000700092,https://gem.wiki/Gunung_Salak_geothermal_power_plant
13.3.2024,Indonesia,Gunung Tamponas geothermal power plant,--,,,55,unknown type,announced,,,2025,,PT Wika Jabar Power,,PT Resources Jaya Teknik Management [33%]; PT Jasa Sarana [33%]; PT Wijaya Karya [33%],,,,-6.8426,107.9143,approximate,,,Sumedang Regency,West Java,South-eastern Asia,Asia,,,L100000700059,G100000700093,https://gem.wiki/Gunung_Tamponas_geothermal_power_plant
2.5.2023,Japan,Hatchobara geothermal power plant,1,九州電力（株） 八丁原発電所,Hatchobaru Otake,55,flash steam - double,operating,,,1977,,Kyushu Electric Power,,Kyushu Electric Power [100%],,,,33.1053,131.1874,exact,,Kusu County,,,Eastern Asia,Asia,World Resources Institute: WRI1020116,,L100000700060,G100000700094,https://gem.wiki/Hatchobara_geothermal_power_plant
2.5.2023,Japan,Hatchobara geothermal power plant,2,九州電力（株） 八丁原発電所,Hatchobaru Otake,55,flash steam - double,operating,,,1990,,Kyushu Electric Power,,Kyushu Electric Power [100%],,,,33.1053,131.1874,exact,,Kusu County,,,Eastern Asia,Asia,World Resources Institute: WRI1020116,,L100000700060,G100000700095,https://gem.wiki/Hatchobara_geothermal_power_plant
15.5.2023,United States,Hawthorne Army Depot geothermal plant,--,,,30,unknown type,cancelled,,,,,,,,,,,38.4815,-118.4983,approximate,,Mineral County,,Nevada,Northern America,Americas,,,L100000700061,G100000700096,https://gem.wiki/Hawthorne_Army_Depot_geothermal_plant
3.5.2023,United States,Heber 1 Geothermal,--,,,52,binary cycle,operating,,,1985,,ORCAL Geothermal INC,,Ormat Technology INC [100%],,,,32.7146,-115.518,exact,,Imperial County,,California,Northern America,Americas,"EIA: 54689, World Resources Institute: USA0054689",,L100000700062,G100000700097,https://gem.wiki/Heber_1_Geothermal
11.5.2023,United States,Hell's Kitchen geothermal plant,1,,,55,flash steam - single,construction,,,2025,,,,Controlled Thermal Resource [100%],,,,33.3126,-115.7815,approximate,,Salton Sea,,California,Northern America,Americas,World Resources Institute: WRI1002796,,L100000700064,G100000700100,https://gem.wiki/Hell's_Kitchen_geothermal_plant
11.5.2023,United States,Hell's Kitchen geothermal plant,2,,,55,flash steam - triple,pre-construction,,,2024,,,,Controlled Thermal Resource [100%],,,,33.3126,-115.7815,approximate,,Salton Sea,,California,Northern America,Americas,World Resources Institute: WRI1002796,,L100000700064,G100000700099,https://gem.wiki/Hell's_Kitchen_geothermal_plant
11.5.2023,United States,Hell's Kitchen geothermal plant,3,,,55,flash steam - triple,pre-construction,,,2025,,,,,,,,32.8484,-115.5711,approximate,,Imperial County,,California,Northern America,Americas,World Resources Institute: WRI1002796,,L100000700064,G100000700495,https://gem.wiki/Hell's_Kitchen_geothermal_plant
11.5.2023,United States,Hell's Kitchen geothermal plant,4,,,55,flash steam - triple,pre-construction,,,2026,,,,,,,,32.8484,-115.5711,approximate,,Imperial County,,California,Northern America,Americas,World Resources Institute: WRI1002796,,L100000700064,G100000700496,https://gem.wiki/Hell's_Kitchen_geothermal_plant
11.5.2023,United States,Hell's Kitchen geothermal plant,5,,,55,flash steam - triple,pre-construction,,,2026,,,,,,,,32.8484,-115.5711,approximate,,Imperial County,,California,Northern America,Americas,World Resources Institute: WRI1002796,,L100000700064,G100000700497,https://gem.wiki/Hell's_Kitchen_geothermal_plant
11.5.2023,United States,Hell's Kitchen geothermal plant,6,,,55,flash steam - triple,pre-construction,,,2027,,,,,,,,32.8484,-115.5711,approximate,,Imperial County,,California,Northern America,Americas,World Resources Institute: WRI1002796,,L100000700064,G100000700498,https://gem.wiki/Hell's_Kitchen_geothermal_plant
2.5.2023,Iceland,Hellisheiðarvirkjun geothermal power plant,1,,,45,flash steam - single,operating,,,2006,,Orkuveita Reykjavikur,,Orkuveita Reykjavikur [100%],,,,64.0373,-21.4007,exact,,Sveitarfélagið Ölfus,Southern Region,,Northern Europe,Europe,World Resources Institute: WRI1002796,,L100000700065,G100000700101,https://gem.wiki/Hellisheiðarvirkjun_geothermal_power_plant
2.5.2023,Iceland,Hellisheiðarvirkjun geothermal power plant,2,,,45,flash steam - single,operating,,,2006,,Orkuveita Reykjavikur,,Orkuveita Reykjavikur [100%],,,,64.0373,-21.4007,exact,,Sveitarfélagið Ölfus,Southern Region,,Northern Europe,Europe,,,L100000700065,G100000700102,https://gem.wiki/Hellisheiðarvirkjun_geothermal_power_plant
2.5.2023,Iceland,Hellisheiðarvirkjun geothermal power plant,3,,,45,flash steam - single,operating,,,2008,,Orkuveita Reykjavikur,,Orkuveita Reykjavikur [100%],,,,64.0373,-21.4007,exact,,Sveitarfélagið Ölfus,Southern Region,,Northern Europe,Europe,,,L100000700065,G100000700103,https://gem.wiki/Hellisheiðarvirkjun_geothermal_power_plant
2.5.2023,Iceland,Hellisheiðarvirkjun geothermal power plant,4,,,45,flash steam - single,operating,,,2008,,Orkuveita Reykjavikur,,Orkuveita Reykjavikur [100%],,,,64.0373,-21.4007,exact,,Sveitarfélagið Ölfus,Southern Region,,Northern Europe,Europe,,,L100000700065,G100000700104,https://gem.wiki/Hellisheiðarvirkjun_geothermal_power_plant
2.5.2023,Iceland,Hellisheiðarvirkjun geothermal power plant,5,,,45,flash steam - single,operating,,,2011,,Orkuveita Reykjavikur,,Orkuveita Reykjavikur [100%],,,,64.0373,-21.4007,exact,,Sveitarfélagið Ölfus,Southern Region,,Northern Europe,Europe,,,L100000700065,G100000700105,https://gem.wiki/Hellisheiðarvirkjun_geothermal_power_plant
2.5.2023,Iceland,Hellisheiðarvirkjun geothermal power plant,6,,,45,flash steam - single,operating,,,2011,,Orkuveita Reykjavikur,,Orkuveita Reykjavikur [100%],,,,64.0373,-21.4007,exact,,Sveitarfélagið Ölfus,Southern Region,,Northern Europe,Europe,,,L100000700065,G100000700106,https://gem.wiki/Hellisheiðarvirkjun_geothermal_power_plant
2.5.2023,Iceland,Hellisheiðarvirkjun geothermal power plant,Low-pressure turbine,,,33,unknown type,operating,,,2007,,Orkuveita Reykjavikur,,Orkuveita Reykjavikur [100%],,,,64.0373,-21.4007,exact,,Sveitarfélagið Ölfus,Southern Region,,Northern Europe,Europe,,,L100000700065,G100000700107,https://gem.wiki/Hellisheiðarvirkjun_geothermal_power_plant
13.3.2024,Indonesia,Hululais geothermal power plant,Future units,,,230,unknown type,announced,,,,,Pertamina Geothermal Energy,,,,,,-3.2413,102.2782,exact,,Lebong Selatan,,Bengkulu,South-eastern Asia,Asia,,,L100000700066,G100000700349,https://gem.wiki/Hululais_geothermal_power_plant
13.3.2024,Indonesia,Hululais geothermal power plant,1,,,55,unknown type,construction,,,2024,,Pertamina Geothermal Energy,,Pertamina Geothermal Energy [100%],,,,-3.2413,102.2782,exact,,Lebong Selatan,,Bengkulu,South-eastern Asia,Asia,,,L100000700066,G100000700108,https://gem.wiki/Hululais_geothermal_power_plant
13.3.2024,Indonesia,Hululais geothermal power plant,2,,,55,unknown type,pre-construction,,,2026,,Pertamina Geothermal Energy,,Pertamina Geothermal Energy [100%],,,,-3.2413,102.2782,exact,,Lebong Selatan,,Bengkulu,South-eastern Asia,Asia,,,L100000700066,G100000700109,https://gem.wiki/Hululais_geothermal_power_plant
2.5.2023,Iceland,Hverahlíð geothermal power plant,--,,,90,unknown type,cancelled,,,,,Orkuveita Reykjavikur,,Orkuveita Reykjavikur [100%],,,,64.0077,-21.3547,approximate,,,Hverahlidh,Southern Region,Northern Europe,Europe,,,L100000700067,G100000700110,https://gem.wiki/Hverahlíð_geothermal_power_plant
14.3.2024,United States,Imperial Valley geothermal plant,G303,,,70,unknown type,shelved,,,,,CE Obsidian Energy LLC,,,,,,33.1594,-115.6144,exact,,Imperial County,,California,Northern America,Americas,"EIA: 57477, EIA: 57478, EIA: 57479",,L100000700068,G100000700111,https://gem.wiki/Imperial_Valley_geothermal_plant
14.3.2024,United States,Imperial Valley geothermal plant,G3201,,,70,unknown type,shelved,,,,,CE Obsidian Energy LLC,,,,,,33.1594,-115.6144,exact,,Imperial County,,California,Northern America,Americas,"EIA: 57477, EIA: 57478, EIA: 57479",,L100000700068,G100000700112,https://gem.wiki/Imperial_Valley_geothermal_plant
14.3.2024,United States,Imperial Valley geothermal plant,G3202,,,70,unknown type,shelved,,,,,CE Obsidian Energy LLC,,,,,,33.1594,-115.6144,exact,,Imperial County,,California,Northern America,Americas,"EIA: 57477, EIA: 57478, EIA: 57479",,L100000700068,G100000700113,https://gem.wiki/Imperial_Valley_geothermal_plant
3.5.2023,United States,John L. Featherstone geothermal plant,Hudson Ranch 1,,,55,flash steam - triple,operating,,,2012,,Hudson Ranch Power I LLC,,EnergySource [100%],,,,33.2046,-115.5733,exact,,Imperial County,,California,Northern America,Americas,"World Resources Institute: USA0057475, EIA: 58211, EIA: 57475",,L100000700069,G100000700115,https://gem.wiki/John_L._Featherstone_geothermal_plant
3.5.2023,United States,John L. Featherstone geothermal plant,Hudson Ranch 2,,,55,unknown type,cancelled,,,,,Hudson Ranch Power I LLC,,,,,,33.2044,-115.5567,exact,,Imperial County,,California,Northern America,Americas,"World Resources Institute: USA0057475, EIA: 58211, EIA: 57475",,L100000700069,G100000700114,https://gem.wiki/John_L._Featherstone_geothermal_plant
2.5.2023,Japan,Kakkonda geothermal power plant,1,カコンダ地熱発電所,,50,flash steam - single,operating,,,1978,,Tohoku Electric Power CO INC,,Tohoku Electric Power CO INC [100%],,,,39.8291,140.8649,exact,,Iwate County,,,Eastern Asia,Asia,World Resources Institute: WRI1020117,,L100000700070,G100000700116,https://gem.wiki/Kakkonda_geothermal_power_plant
2.5.2023,Japan,Kakkonda geothermal power plant,2,カコンダ地熱発電所,,30,flash steam - single,operating,,,1996,,Tohoku Electric Power CO INC,,Tohoku Electric Power CO INC [100%],,,,39.8291,140.8649,exact,,Iwate County,,,Eastern Asia,Asia,World Resources Institute: WRI1020117,,L100000700070,G100000700117,https://gem.wiki/Kakkonda_geothermal_power_plant
13.3.2024,Philippines,Kalinga geothermal power plant,1,,,40,unknown type,pre-construction,,,2027,,,,Aragorn Power and Energy Corp,,,,17.2481,121.1234,approximate,,,Tinglayan,Kalinga,South-eastern Asia,Asia,,,L100000700071,G100000700118,https://gem.wiki/Kalinga_geothermal_power_plant
28.3.2024,Philippines,Kalinga geothermal power plant,2,,,40,unknown type,pre-construction,,,2029,,,,Aragorn Power and Energy Corp,,,,17.2481,121.1234,approximate,,,Tinglayan,Kalinga,South-eastern Asia,Asia,,,L100000700071,G100001005190,https://gem.wiki/Kalinga_geothermal_power_plant
28.3.2024,Philippines,Kalinga geothermal power plant,3,,,40,unknown type,pre-construction,,,2031,,,,Aragorn Power and Energy Corp,,,,17.2481,121.1234,approximate,,,Tinglayan,Kalinga,South-eastern Asia,Asia,,,L100000700071,G100001005191,https://gem.wiki/Kalinga_geothermal_power_plant
8.5.2023,Indonesia,Kamojang geothermal power plant,4,,,60,unknown type,operating,,,2008,,Pertamina Geothermal Energy,,Pertamina Geothermal Energy [100%],,,yes,-7.1388,107.7851,exact,,Bandung,Darajat,West Java,South-eastern Asia,Asia,,,L100000700072,G100000700122,https://gem.wiki/Kamojang_geothermal_power_plant
8.5.2023,Indonesia,Kamojang geothermal power plant,2,,,55,unknown type,operating,,,1987,,Pertamina Geothermal Energy,,Pertamina Geothermal Energy [100%],,,yes,-7.1388,107.7851,exact,,Bandung,Darajat,West Java,South-eastern Asia,Asia,,,L100000700072,G100000700120,https://gem.wiki/Kamojang_geothermal_power_plant
8.5.2023,Indonesia,Kamojang geothermal power plant,3,,,55,unknown type,operating,,,1987,,Pertamina Geothermal Energy,,Pertamina Geothermal Energy [100%],,,yes,-7.1388,107.7851,exact,,Bandung,Darajat,West Java,South-eastern Asia,Asia,,,L100000700072,G100000700121,https://gem.wiki/Kamojang_geothermal_power_plant
8.5.2023,Indonesia,Kamojang geothermal power plant,5,,,35,dry steam,operating,,,2015,,Pertamina Geothermal Energy,,Pertamina Geothermal Energy [100%],,,yes,-7.1388,107.7851,exact,,Bandung,Darajat,West Java,South-eastern Asia,Asia,,,L100000700072,G100000700123,https://gem.wiki/Kamojang_geothermal_power_plant
8.5.2023,Indonesia,Kamojang geothermal power plant,1,,,30,unknown type,operating,,,1983,,Pertamina Geothermal Energy,,Pertamina Geothermal Energy [100%],,,yes,-7.1388,107.7851,exact,,Bandung,Darajat,West Java,South-eastern Asia,Asia,,,L100000700072,G100000700119,https://gem.wiki/Kamojang_geothermal_power_plant
8.5.2023,Indonesia,Karaha geothermal power plant,1,,PLTP Karaha Bodas,30,dry steam,operating,,,2018,,Pertamina Geothermal Energy,,Pertamina Geothermal Energy [100%],,,,-7.1477,108.0848,exact,,Tasikmalaya,Tasikmalaya Regency,West Java,South-eastern Asia,Asia,,,L100000700073,G100000700124,https://gem.wiki/Karaha_geothermal_power_plant
4.5.2023,Türkiye,Karataş geothermal plant,--,,,100,unknown type,cancelled - inferred 4 y,,,,,,,Zorlu Enerji [100%],,,,37.9489,28.8801,approximate,Karataş,,Sarayköy,Denizli,Western Asia,Asia,,,L100000700074,G100000700125,https://gem.wiki/Karataş_geothermal_plant
13.3.2024,Armenia,Karkar geothermal power plant,--,Կարկառի երկրաջերմաէլեկտրակայան,,40,unknown type,shelved - inferred 2 y,,,,,Sumes GeoPower AG,,Sumes GeoPower AG [100%],,,,39.7847,45.9419,exact,,,Gorayk Community,Syunik Province,Western Asia,Asia,,,L100000700075,G100000700126,https://gem.wiki/Karkar_geothermal_power_plant
13.3.2024,Uganda,Katwe geothermal power plant,--,,Katwe-Kikorongo,200,unknown type,pre-construction,,,2026,,AAE Systems INC,,AAE Systems INC [100%],,,,-0.0804,29.9193,approximate,,,Kasese,Kampala,Sub-Saharan Africa,Africa,,,L100000700076,G100000700127,https://gem.wiki/Katwe_geothermal_power_plant
2.5.2023,New Zealand,Kawerau geothermal power plant,--,,,100,flash steam - double,operating,,,2008,,Mercury NZ LTD,,Mercury NZ LTD [100%],,,,-38.0631,176.7272,exact,,Kawerau District,,Bay of Plenty,Australia and New Zealand,Oceania,World Resources Institute: WRI1000327,,L100000700077,G100000700128,https://gem.wiki/Kawerau_geothermal_power_plant
13.3.2024,Philippines,Kayabon geothermal power plant,1,,,30,unknown type,announced,,,2026,,Energy Development CORP (EDC),,Energy Development CORP (EDC) [100%],,,,12.2549,123.5327,approximate,,,Cayabon,Masbate,South-eastern Asia,Asia,,,L100000700078,G100000700129,https://gem.wiki/Kayabon_geothermal_power_plant
13.3.2024,Indonesia,Kepahiang geothermal power plant,1,,,55,unknown type,pre-construction,,,,,,,PT PLN (Persero) [100%],,,,-3.629,102.6009,approximate,,,Kepahiang,Bengkulu,South-eastern Asia,Asia,,,L100000700204,G100000700350,https://gem.wiki/Kepahiang_geothermal_power_plant
13.3.2024,Indonesia,Kepahiang geothermal power plant,2,,,55,unknown type,pre-construction,,,,,,,PT PLN (Persero) [100%],,,,-3.629,102.6009,approximate,,,Kepahiang,Bengkulu,South-eastern Asia,Asia,,,L100000700204,G100000700351,https://gem.wiki/Kepahiang_geothermal_power_plant
4.5.2023,Türkiye,Kızıldere-2 geothermal power plant,--,,"Kizildere Zorlu, Kızıldere-1 & 2 Geothermal Power Plant Ext. & Reh.",80,flash steam - triple,operating,,,2013,,Zorlu Enerji,,Zorlu Enerji [100%],,,,37.9499,28.8354,exact,Denizli,Sarayköy,,Denizli,Western Asia,Asia,World Resources Institute: WRI1018955,,L100000700079,G100000700130,https://gem.wiki/Kızıldere-2_geothermal_power_plant
9.4.2024,Türkiye,Kızıldere-3 geothermal power plant,1,,,100,flash steam - triple,operating,,,2017,,Zorlu Enerji,,Zorlu Enerji [100%],,,,37.94988375,28.84321513864467,exact,Karataş,Sarayköy,Denizli,,Western Asia,Asia,,,L100000700080,G100000700132,https://gem.wiki/Kızıldere-3_geothermal_power_plant
9.4.2024,Türkiye,Kızıldere-3 geothermal power plant,2,,,66,flash steam - triple,operating,,,2018,,Zorlu Enerji,,Zorlu Enerji [100%],,,,37.94988375,28.84321513864467,exact,Karataş,Sarayköy,Denizli,,Western Asia,Asia,,,L100000700080,G100000700131,https://gem.wiki/Kızıldere-3_geothermal_power_plant
14.3.2024,Türkiye,Kızıldere-4 geothermal power plant,--,,,60,unknown type,pre-construction,,,2025,,,,Zorlu Enerji [100%],,,,38.6126,27.4334,approximate,Manisa,,,,Western Asia,Asia,,,L100000700081,G100000700133,https://gem.wiki/Kızıldere-4_geothermal_power_plant
2.5.2023,Iceland,Krafla geothermal power plant,1,,,30,flash steam - double,operating,,,1977,,Landsvirkjun,,Landsvirkjun [100%],,,,65.7035,-16.7735,exact,,Þingeyjarsveit,Northeastern Region,,Northern Europe,Europe,World Resources Institute: WRI1002800,,L100000700082,G100000700134,https://gem.wiki/Krafla_geothermal_power_plant
2.5.2023,Iceland,Krafla geothermal power plant,2,,,30,flash steam - double,operating,,,1999,,Landsvirkjun,,Landsvirkjun [100%],,,,65.7035,-16.7735,exact,,Þingeyjarsveit,Northeastern Region,,Northern Europe,Europe,World Resources Institute: WRI1002800,,L100000700082,G100000700135,https://gem.wiki/Krafla_geothermal_power_plant
2.5.2023,Japan,Kyuden Ogiri geothermal power plant,--,九州電力(株) 大霧発電所,Ogun,30,flash steam - single,operating,,,1996,,Kyushu Electric Power,,Kyushu Electric Power [100%],,,,31.9318,130.7977,exact,Kirishima,,,,Eastern Asia,Asia,World Resources Institute: WRI1020121,,L100000700083,G100000700136,https://gem.wiki/Kyuden_Ogiri_geothermal_power_plant
13.3.2024,Bolivia,Laguna Colorada geothermal power plant,1,Central geotérmica Laguna Colorada,,50,unknown type,construction,,,2026,,Empresa Nacional de Electricidad SA (ENDE),,Empresa Nacional de Electricidad SA (ENDE) [100%],,,,-22.4429,-67.806,approximate,,,Sud Lípez,Potosí,Latin America and the Caribbean,Americas,,,L100000700084,G100000700137,https://gem.wiki/Laguna_Colorada_geothermal_power_plant
13.3.2024,Bolivia,Laguna Colorada geothermal power plant,2,Central geotérmica Laguna Colorada,,50,unknown type,construction,,,2026,,Empresa Nacional de Electricidad SA (ENDE),,Empresa Nacional de Electricidad SA (ENDE) [100%],,,,-22.4429,-67.806,approximate,,,Sud Lípez,Potosí,Latin America and the Caribbean,Americas,,,L100000700084,G100000700138,https://gem.wiki/Laguna_Colorada_geothermal_power_plant
3.5.2023,United States,Lake View geothermal plant,17,,Geysers geothermal plant U17,118,dry steam,operating,,,1982,,Geysers Power Co LLC,,Calpine CORP [100%],,,,38.777,-122.745,exact,,Sonoma County,,California,Northern America,Americas,"EIA: 286, World Resources Institute: USA0000286",,L100000700085,G100000700139,https://gem.wiki/Lake_View_geothermal_plant
13.3.2024,Laos,Laos North geothermal power plant,1,,,1000,unknown type,pre-construction,,,,,,,Lao Development and Investment (LDIC) [50%]; GEIOS Next Gen Hybrid Geothermal Solution [50%],,,,20.2762,102.6244,approximate,,,,Luang Prabang Province,South-eastern Asia,Asia,,,L100000700219,G100000700390,https://gem.wiki/Laos_North_geothermal_power_plant
13.3.2024,Laos,Laos South geothermal power plant,2,,,1000,unknown type,pre-construction,,,,,,,Lao Development and Investment (LDIC) [50%]; GEIOS Next Gen Hybrid Geothermal Solution [50%],,,,16.2817,106.151,approximate,,,,Luang Prabang Province,South-eastern Asia,Asia,,,L100000700220,G100000700391,https://gem.wiki/Laos_South_geothermal_power_plant
13.3.2024,Costa Rica,Las Pailas geothermal power plant,2,Planta geotérmica Las Pailas,,55,binary cycle,operating,,,2019,,Costa Rican Electricity Institute (ICE),,Costa Rican Electricity Institute (ICE) [100%],,,,10.758,-85.3464,exact,Liberia,Cantón Liberia,,,Latin America and the Caribbean,Americas,World Resources Institute: GEODB0043643,,L100000700086,G100000700140,https://gem.wiki/Las_Pailas_geothermal_power_plant
13.3.2024,Costa Rica,Las Pailas geothermal power plant,1,Planta geotérmica Las Pailas,,35,binary cycle,operating,,,2011,,Costa Rican Electricity Institute (ICE),,Costa Rican Electricity Institute (ICE) [100%],,,,10.7573,-85.3596,exact,,Cantón Liberia,,,Latin America and the Caribbean,Americas,World Resources Institute: GEODB0043643,,L100000700086,G100000700141,https://gem.wiki/Las_Pailas_geothermal_power_plant
2.5.2023,Papua New Guinea,Lihir Island geothermal power plant,3,,,40,unknown type,cancelled - inferred 4 y,,,,,Newcrest Mining Limited,,Newcrest Mining Limited [100%],,,,-3.1245,152.6464,exact,,,,New Ireland,Melanesia,Oceania,World Resources Institute: WRI1022423,,L100000700087,G100000700143,https://gem.wiki/Lihir_Island_geothermal_power_plant
2.5.2023,Papua New Guinea,Lihir Island geothermal power plant,2,,,30,flash steam - single,operating,,,2007,,Newcrest Mining Limited,,Newcrest Mining Limited [100%],,,,-3.1245,152.6464,exact,,,,New Ireland,Melanesia,Oceania,World Resources Institute: WRI1022423,,L100000700087,G100000700142,https://gem.wiki/Lihir_Island_geothermal_power_plant
13.3.2024,Australia,Limestone Coast geothermal power plant,1,,,50,unknown type,cancelled - inferred 4 y,,,,,Scopenergy LTD,,Scopenergy LTD [100%],,,,-37.0471,140.0019,approximate,,,Limestone Coast,South Australia,Australia and New Zealand,Oceania,,,L100000700088,G100000700144,https://gem.wiki/Limestone_Coast_geothermal_power_plant
28.3.2024,Kenya,Longonot geothermal power plant,--,,,35,unknown type,pre-construction,,,2027,,Pertamina Geothermal Energy,,,,,,-0.896464574,36.47619617861271,approximate,,,,,Sub-Saharan Africa,Africa,,,L100001004450,G100001005204,https://www.gem.wiki/Longonot_geothermal_power_plant
2.5.2023,Mexico,Los Azufres geothermal power plant,Phase 1 - 17,Central geotérmica Los Azufres 3,,50,flash steam - single,operating,,,2015,,Comision Federal De Electricidad,,Comision Federal De Electricidad [100%],,,,19.7901,-100.6668,exact,,Hidalgo,,Michoacán,Latin America and the Caribbean,Americas,,,L100000700089,G100000700145,https://gem.wiki/Los_Azufres_geothermal_power_plant
13.3.2024,Indonesia,Lumut Balai 2 geothermal power plant,1,,,55,unknown type,pre-construction,,,2024,,Pertamina Geothermal Energy,,Pertamina Geothermal Energy [100%],,,,-4.1943,103.6403,exact,,Semende Darat Laut,,South Sumatra,South-eastern Asia,Asia,,,L100000700090,G100000700146,https://gem.wiki/Lumut_Balai_2_geothermal_power_plant
13.3.2024,Indonesia,Lumut Balai 2 geothermal power plant,2,,,55,unknown type,pre-construction,,,2024,,Pertamina Geothermal Energy,,Pertamina Geothermal Energy [100%],,,,-4.1943,103.6403,exact,,Semende Darat Laut,,South Sumatra,South-eastern Asia,Asia,,,L100000700090,G100000700147,https://gem.wiki/Lumut_Balai_2_geothermal_power_plant
8.5.2023,Indonesia,Lumut Balai geothermal power plant,1,,,55,flash steam - single,operating,,,2019,,Pertamina Geothermal Energy,,Pertamina Geothermal Energy [100%],,,,-4.1943,103.6403,exact,,Semende Darat Laut,,South Sumatra,South-eastern Asia,Asia,,,L100000700091,G100000700148,https://gem.wiki/Lumut_Balai_geothermal_power_plant
13.3.2024,Indonesia,Lumut Balai geothermal power plant,2,,,55,unknown type,construction,,,2024,,Pertamina Geothermal Energy,,Pertamina Geothermal Energy [100%],,,,-4.1943,103.6403,exact,,Semende Darat Laut,,South Sumatra,South-eastern Asia,Asia,,,L100000700091,G100000700149,https://gem.wiki/Lumut_Balai_geothermal_power_plant
3.5.2023,Philippines,Mahanagdong geothermal facility,A1,,"Leyte Mahanagdong (Phases A1, A2, B1)",60,flash steam - double,operating,,,1997,,Energy Development CORP (EDC),,Energy Development CORP (EDC) [100%],,,,11.1309,124.6695,exact,Ormoc,,Leyte 4th District,Leyte,South-eastern Asia,Asia,World Resources Institute: WRI1001942,,L100000700092,G100000700150,https://gem.wiki/Mahanagdong_geothermal_facility
3.5.2023,Philippines,Mahanagdong geothermal facility,A2,,"Leyte Mahanagdong (Phases A1, A2, B1)",60,flash steam - double,operating,,,1997,,Energy Development CORP (EDC),,Energy Development CORP (EDC) [100%],,,,11.1309,124.6695,exact,Ormoc,,Leyte 4th District,Leyte,South-eastern Asia,Asia,World Resources Institute: WRI1001942,,L100000700092,G100000700151,https://gem.wiki/Mahanagdong_geothermal_facility
3.5.2023,Philippines,Mahanagdong geothermal facility,B1,,"Leyte Mahanagdong (Phases A1, A2, B1)",60,unknown type,operating,,,1997,,Energy Development CORP (EDC),,Energy Development CORP (EDC) [100%],,,,11.1309,124.6695,exact,Ormoc,,Leyte 4th District,Leyte,South-eastern Asia,Asia,World Resources Institute: WRI1001942,,L100000700092,G100000700152,https://gem.wiki/Mahanagdong_geothermal_facility
3.5.2023,Philippines,Makban geothermal power plant,1,,,63,flash steam - double,operating,,,1979,,AP Renewables INC (APRI),,AboitizPower CORP [100%],,,,14.0917,121.2143,exact,,,,Laguna,South-eastern Asia,Asia,World Resources Institute: WRI1001888,,L100000700094,G100000700154,https://gem.wiki/Makban_geothermal_power_plant
3.5.2023,Philippines,Makban geothermal power plant,2,,,63,flash steam - double,operating,,,1979,,AP Renewables INC (APRI),,AboitizPower CORP [100%],,,,14.0917,121.2143,exact,,,,Laguna,South-eastern Asia,Asia,World Resources Institute: WRI1001888,,L100000700094,G100000700155,https://gem.wiki/Makban_geothermal_power_plant
3.5.2023,Philippines,Makban geothermal power plant,3,,,63,flash steam - single,operating,,,1980,,AP Renewables INC (APRI),,AboitizPower CORP [100%],,,,14.0917,121.2143,exact,,,,Laguna,South-eastern Asia,Asia,World Resources Institute: WRI1001888,,L100000700094,G100000700156,https://gem.wiki/Makban_geothermal_power_plant
3.5.2023,Philippines,Makban geothermal power plant,4,,,63,flash steam - single,operating,,,1980,,AP Renewables INC (APRI),,AboitizPower CORP [100%],,,,14.0917,121.2143,exact,,,,Laguna,South-eastern Asia,Asia,World Resources Institute: WRI1001888,,L100000700094,G100000700157,https://gem.wiki/Makban_geothermal_power_plant
3.5.2023,Philippines,Makban geothermal power plant,5,,,55,flash steam - single,operating,,,1981,,AP Renewables INC (APRI),,AboitizPower CORP [100%],,,,14.0917,121.2143,exact,,,,Laguna,South-eastern Asia,Asia,World Resources Institute: WRI1001888,,L100000700094,G100000700158,https://gem.wiki/Makban_geothermal_power_plant
3.5.2023,Philippines,Makban geothermal power plant,6,,,55,unknown type,operating,,,1982,,AP Renewables INC (APRI),,AboitizPower CORP [100%],,,,14.0917,121.2143,exact,,,,Laguna,South-eastern Asia,Asia,World Resources Institute: WRI1001888,,L100000700094,G100000700159,https://gem.wiki/Makban_geothermal_power_plant
14.3.2024,United States,Makushin geothermal power plant,--,,,30,unknown type,announced,,,,,,,Ounalashka CORP (OCCP) [100%],,,,53.8949,-166.9341,approximate,,,Unalaska Island,Alaska,Northern America,Americas,,,L100000700276,G100000700506,https://gem.wiki/Makushin_geothermal_power_plant
3.5.2023,Philippines,Malitbog geothermal power plant,1,,Leyte Malitbog,78,flash steam - single,operating,,,1996,,Energy Development CORP (EDC),,Energy Development CORP (EDC) [100%],,,,11.1525,124.6492,exact,Ormoc,,Leyte 4th District,Leyte,South-eastern Asia,Asia,,,L100000700095,G100000700160,https://gem.wiki/Malitbog_geothermal_power_plant
3.5.2023,Philippines,Malitbog geothermal power plant,2,,Leyte Malitbog,78,flash steam - single,operating,,,1997,,Energy Development CORP (EDC),,Energy Development CORP (EDC) [100%],,,,11.1525,124.6492,exact,Ormoc,,Leyte 4th District,Leyte,South-eastern Asia,Asia,,,L100000700095,G100000700161,https://gem.wiki/Malitbog_geothermal_power_plant
3.5.2023,Philippines,Malitbog geothermal power plant,3,,Leyte Malitbog,78,flash steam - single,operating,,,1997,,Energy Development CORP (EDC),,Energy Development CORP (EDC) [100%],,,,11.1525,124.6492,exact,Ormoc,,Leyte 4th District,Leyte,South-eastern Asia,Asia,,,L100000700095,G100000700162,https://gem.wiki/Malitbog_geothermal_power_plant
13.3.2024,Chile,Mariposa geothermal power plant,1,Central geotérmica Mariposa,Calabozo geothermal power plant,50,unknown type,pre-construction,,,,,Energy Development CORP (EDC),,Energy Development CORP (EDC) [100%],,,,-35.5404,-71.4849,approximate,,San Celemente,Talca,Maule,Latin America and the Caribbean,Americas,,,L100000700096,G100000700163,https://gem.wiki/Mariposa_geothermal_power_plant
13.3.2024,Chile,Mariposa geothermal power plant,2,Central geotérmica Mariposa,Calabozo geothermal power plant,50,unknown type,pre-construction,,,,,Energy Development CORP (EDC),,Energy Development CORP (EDC) [100%],,,,-35.5404,-71.4849,approximate,,San Celemente,Talca,Maule,Latin America and the Caribbean,Americas,,,L100000700096,G100000700164,https://gem.wiki/Mariposa_geothermal_power_plant
4.5.2023,Türkiye,Maspo Ala-2 geothermal power plant,--,,,30,binary cycle,operating,,,2019,,,,Maspo Energy AS [100%],,,,38.4222,28.3892,exact,,Alaşehir,,,Western Asia,Asia,,,L100000700097,G100000700165,https://gem.wiki/Maspo_Ala-2_geothermal_power_plant
3.5.2023,United States,McCabe geothermal plant,6.5.2023 00:00,,Geysers geothermal plant U5 & U6,110,dry steam,operating,,,1971,,Geysers Power Co LLC,,Calpine CORP [100%],,,,38.777,-122.745,exact,,Sonoma County,,California,Northern America,Americas,"EIA: 286, World Resources Institute: USA0000286",,L100000700098,G100000700166,https://gem.wiki/McCabe_geothermal_plant
3.5.2023,United States,McGinness Hills 3 geothermal plant,1,,,48,binary cycle,operating,,,2018,,,,Ormat Technology INC [100%],,,,39.5933,-116.9126,exact,,Lander County,,Nevada,Northern America,Americas,"World Resources Institute: USA0061912, EIA: 61912",,L100000700099,G100000700167,https://gem.wiki/McGinness_Hills_3_geothermal_plant
3.5.2023,United States,McGinness Hills geothermal plant,1,,,45,binary cycle,operating,,,2012,,Ormat Technology INC,,Ormat Technology INC [100%],,,,39.5963,-116.8942,exact,,Lander County,,Nevada,Northern America,Americas,"World Resources Institute: USA0057446, EIA: 61912",,L100000700100,G100000700168,https://gem.wiki/McGinness_Hills_geothermal_plant
3.5.2023,United States,McGinness Hills geothermal plant,2,,,45,binary cycle,operating,,,2012,,Ormat Technology INC,,Ormat Technology INC [100%],,,,39.5963,-116.8942,exact,,Lander County,,Nevada,Northern America,Americas,"World Resources Institute: USA0057446, EIA: 61912",,L100000700100,G100000700169,https://gem.wiki/McGinness_Hills_geothermal_plant
13.3.2024,Canada,Meager Creek geothermal power plant,Future units,,,200,unknown type,pre-construction,,,2025,,Meager Creek Development CORP,,Meager Creek Development CORP [100%],,,yes,50.5754,-123.4646,approximate,,,Pemberton,British Columbia,Northern America,Americas,,,L100000700101,G100000700170,https://gem.wiki/Meager_Creek_geothermal_power_plant
4.5.2023,Türkiye,Melih geothermal plant,--,,,33,binary cycle,operating,,,2018,,,,Ormat Technology INC [100%],,,,37.911,27.6404,exact,,Germencik,,,Western Asia,Asia,,,L100000700102,G100000700171,https://gem.wiki/Melih_geothermal_plant
14.3.2024,Kenya,Menengai 1 geothermal power plant,1,,,35,unknown type,operating,,,2023,,Orpower Twenty Two LTD,,Geothermal Development Company (GDC) [100%],,,,-0.2137,36.0591,exact,,Nakuru North,,Nakuru,Sub-Saharan Africa,Africa,,,L100000700103,G100000700174,https://gem.wiki/Menengai_1_geothermal_power_plant
14.3.2024,Kenya,Menengai 1 geothermal power plant,2,,,35,unknown type,construction,,,,,Quantum East Africa Power LTD,,Geothermal Development Company (GDC) [100%],,,,-0.2137,36.0591,exact,,Nakuru North,,Nakuru,Sub-Saharan Africa,Africa,,,L100000700103,G100000700173,https://gem.wiki/Menengai_1_geothermal_power_plant
14.3.2024,Kenya,Menengai 1 geothermal power plant,3,,,35,unknown type,construction,,,,,Sosian Energy,,Geothermal Development Company (GDC) [100%],,,,-0.2137,36.0591,exact,,Nakuru North,,Nakuru,Sub-Saharan Africa,Africa,,,L100000700103,G100000700172,https://gem.wiki/Menengai_1_geothermal_power_plant
14.3.2024,Kenya,Menengai 2 geothermal power plant,--,,,60,flash steam - unknown,pre-construction,,,2025,,Geothermal Development Company (GDC),,Geothermal Development Company (GDC) [100%],,,,-0.196,36.063,exact,,Nakuru North,,Nakuru,Sub-Saharan Africa,Africa,,,L100000700104,G100000700175,https://gem.wiki/Menengai_2_geothermal_power_plant
12.3.2024,Kenya,Menengai 3 geothermal power plant,Future units,,,300,unknown type,announced,,,,,Geothermal Development Company (GDC),,Geothermal Development Company (GDC) [100%],,,,-0.196,36.063,approximate,,,,Nakuru,Sub-Saharan Africa,Africa,,,L100000700105,G100000700176,https://gem.wiki/Menengai_3_geothermal_power_plant
3.5.2023,Philippines,Mindanao geothermal power plant,2,,"Mt. Apo geothermal plant (Phases 1, 2, 3)",54,flash steam - single,operating,,,1999,,Energy Development CORP (EDC),,Energy Development CORP (EDC) [100%],,,,7.0127,125.2198,exact,Kidapawan,,,North Cotabato,South-eastern Asia,Asia,World Resources Institute: WRI1001956,,L100000700106,G100000700178,https://gem.wiki/Mindanao_geothermal_power_plant
3.5.2023,Philippines,Mindanao geothermal power plant,1,,"Mt. Apo geothermal plant (Phases 1, 2, 3)",52,flash steam - single,operating,,,1997,,Energy Development CORP (EDC),,Energy Development CORP (EDC) [100%],,,,7.0127,125.2198,exact,Kidapawan,,,North Cotabato,South-eastern Asia,Asia,World Resources Institute: WRI1001956,,L100000700106,G100000700177,https://gem.wiki/Mindanao_geothermal_power_plant
16.5.2023,Philippines,Mindanao geothermal power plant,3,,"Mt. Apo geothermal plant (Phases 1, 2, 3)",50,flash steam - single,cancelled - inferred 4 y,,,,,Energy Development CORP (EDC),,Energy Development CORP (EDC) [100%],,,,7.0127,125.2198,exact,Kidapawan,,,North Cotabato,South-eastern Asia,Asia,World Resources Institute: WRI1001956,,L100000700106,G100000700179,https://gem.wiki/Mindanao_geothermal_power_plant
13.3.2024,Costa Rica,Miravalles geothermal power plant,1,Planta geotérmica Miravalles,,55,flash steam - single,operating,,,1994,,Costa Rican Electricity Institute (ICE),,Costa Rican Electricity Institute (ICE) [100%],,,,10.7002,-85.1944,exact,,Cantón Bagaces,,,Latin America and the Caribbean,Americas,World Resources Institute: GEODB0004310,,L100000700107,G100000700180,https://gem.wiki/Miravalles_geothermal_power_plant
13.3.2024,Costa Rica,Miravalles geothermal power plant,2,Planta geotérmica Miravalles,,55,flash steam - single,operating,,,1998,,Costa Rican Electricity Institute (ICE),,Costa Rican Electricity Institute (ICE) [100%],,,,10.7002,-85.1944,exact,,Cantón Bagaces,,,Latin America and the Caribbean,Americas,World Resources Institute: GEODB0004310,,L100000700107,G100000700181,https://gem.wiki/Miravalles_geothermal_power_plant
4.5.2023,Türkiye,Mis 3 geothermal plant,--,,,48,binary cycle,operating,,,2019,,Soyak,,,,,,38.3872,28.4099,exact,,Alaşehir,,,Western Asia,Asia,,,L100000700108,G100000700182,https://gem.wiki/Mis_3_geothermal_plant
2.5.2023,New Zealand,Mōkai geothermal power plant,--,,,110,binary cycle,operating,,,2000,,Mercury NZ LTD,,Tuaropaki Power Company [75%]; Mercury NZ LTD [25%],,,,-38.5312,175.9268,exact,,Taupō District,,Waikato,Australia and New Zealand,Oceania,World Resources Institute: WRI1000320,,L100000700109,G100000700183,https://gem.wiki/Mōkai_geothermal_power_plant
2.5.2023,Nicaragua,Momotombo geothermal power plant,1,Central geotérmica Momotombo,,35,flash steam - single,operating,,,1983,,DisNorte-DisSur,,DisNorte-DisSur [100%],,,,12.394,-86.5418,exact,,,,Leon,Latin America and the Caribbean,Americas,World Resources Institute: GEODB0043595,,L100000700110,G100000700185,https://gem.wiki/Momotombo_geothermal_power_plant
2.5.2023,Nicaragua,Momotombo geothermal power plant,2,Central geotérmica Momotombo,,35,flash steam - single,operating,,,1989,,DisNorte-DisSur,,DisNorte-DisSur [100%],,,,12.394,-86.5418,exact,,,,Leon,Latin America and the Caribbean,Americas,World Resources Institute: GEODB0043595,,L100000700110,G100000700184,https://gem.wiki/Momotombo_geothermal_power_plant
2.4.2024,United States,Morton Bay geothermal power plant,--,,Morton Bay Geothermal Project (MBGP),140,,pre-construction,,,,,,,Morton Bay Geothermal LLC,,,,33.20239584741529,-115.5839036,exact,,,,,Northern America,Americas,,,L100001004606,G100001005405,https://www.gem.wiki/Morton_Bay_geothermal_power_plant
13.3.2024,Philippines,Mount Labo geothermal power plant,--,,"Del Gallego, Labo",105,unknown type,pre-construction,,,2027,,,,Philippine Geothermal Production Company Inc,,,,14.0137,122.7871,approximate,,,Labo,Camarines Sur,South-eastern Asia,Asia,,,L100000700111,G100000700186,https://gem.wiki/Mount_Labo_geothermal_power_plant
13.3.2024,Philippines,Mount Natib geothermal power plant,--,,,40,unknown type,pre-construction,,,,,,,Clean Rock Renewable Energy Resources CORP [100%],,,,14.7625,120.4902,approximate,,Samal,,Bataan,South-eastern Asia,Asia,,,L100000700229,G100000700416,https://gem.wiki/Mount_Natib_geothermal_power_plant
13.3.2024,Philippines,Mount Parker geothermal power plant,--,,,60,unknown type,pre-construction,,,,,,,Eoll and Gas CO INC [100%],,,,6.2512,124.5886,approximate,,,,South Cotabato,South-eastern Asia,Asia,,,L100000700230,G100000700417,https://gem.wiki/Mount_Parker_geothermal_power_plant
9.5.2023,Indonesia,Mount Sibayak geothermal power plant,--,,,40,unknown type,cancelled - inferred 4 y,,,,,PT Okha Hutomo Satrya,,PT Okha Hutomo Satrya [100%],,,,3.1853,98.5048,approximate,,Berastagi,Karo Regency,North Sumatra,South-eastern Asia,Asia,,,L100000700112,G100000700187,https://gem.wiki/Mount_Sibayak_geothermal_power_plant
1.4.2024,Philippines,Mt. Malinao geothermal power plant,--,,Mount Malinao,50,,announced,,,,,,,Philippine Geothermal Production Company Inc,,"Three of PGPC's projects are expected to create a total of 1,500 jobs for Filipino workers during exploration, development, well drilling, and commercial operations.",,13.338502118568423,123.40092317913617,approximate,,,,,South-eastern Asia,Asia,,,L100001004544,G100001005330,https://www.gem.wiki/Mt._Malinao_geothermal_power_plant
8.5.2023,Indonesia,Muarah Laboh geothermal plant,1,,Muara Laboh,85,flash steam - double,operating,,,2019,,PT Supreme Energy,,Sumitomo CORP [18%]; ENGIE [18%]; PT Supreme Energy [30%]; INPEX Corp [33%],株式会社INPEX,,,-1.6268,101.1296,exact,,Pauh Duo,,West Sumatra,South-eastern Asia,Asia,,,L100000700113,G100000700188,https://gem.wiki/Muarah_Laboh_geothermal_plant
13.3.2024,Indonesia,Muarah Laboh geothermal plant,2,,Muara Laboh,75,unknown type,construction,,,,,PT Supreme Energy,,Sumitomo CORP [18%]; ENGIE [18%]; PT Supreme Energy [30%]; INPEX Corp [33%],株式会社INPEX,,,-1.6268,101.1296,exact,,Pauh Duo,,West Sumatra,South-eastern Asia,Asia,,,L100000700113,G100000700189,https://gem.wiki/Muarah_Laboh_geothermal_plant
3.5.2023,Russia,Mutnovskaya GeoPP geothermal power plant,--,,,50,flash steam - single,operating,,,2001,,RusHydro,,RusHydro [100%],,,,52.5353,158.2011,exact,,Yelizovsky District,,Kamchatka Krai,Eastern Europe,Europe,World Resources Institute: WRI1061706,,L100000700114,G100000700190,https://gem.wiki/Mutnovskaya_GeoPP_geothermal_power_plant
3.5.2023,Philippines,Nasulo geothermal power plant,--,,,40,unknown type,operating,,,2014,,Energy Development CORP (EDC),,Energy Development CORP (EDC) [100%],,,,9.2805,123.1531,exact,,,,Negros Oriental,South-eastern Asia,Asia,,,L100000700115,G100000700191,https://gem.wiki/Nasulo_geothermal_power_plant
15.5.2023,United States,Navy 1 geothermal plant,GEN7-9,,Coso geothermal power plant,90,flash steam - double,operating,,,1988,,Coso Operating Co LLC,,Atlantica Sustainable Infrastructure [100%],,,,36.0019,-117.7886,exact,,Inyo County,,California,Northern America,Americas,"EIA: 10875, World Resources Institute: USA0010875",,L100000700116,G100000700192,https://gem.wiki/Navy_1_geothermal_plant
15.5.2023,United States,Navy 2 geothermal plant,GEN4-6,,Coso geothermal power plant,90,flash steam - double,operating,,,1989,,Coso Operating Co LLC,,Atlantica Sustainable Infrastructure [100%],,,,36.0192,-117.7917,exact,,Inyo County,,California,Northern America,Americas,"World Resources Institute: USA0010875, EIA: 10874",,L100000700117,G100000700193,https://gem.wiki/Navy_2_geothermal_plant
3.5.2023,United States,NCPA geothermal plant,1,,,55,dry steam,operating,,,1983,,Northern California Power Agency,,,,,,38.752,-122.7195,exact,,Lake County,,California,Northern America,Americas,"World Resources Institute: USA0007368, EIA: 7369, World Resources Institute: USA0007369, EIA: 7368",,L100000700118,G100000700194,https://gem.wiki/NCPA_geothermal_plant
15.5.2023,United States,NCPA geothermal plant,2,,,55,dry steam,operating,,,1983,,Northern California Power Agency,,,,,,38.7492,-122.7117,exact,,Lake County,,California,Northern America,Americas,"World Resources Institute: USA0007368, EIA: 7369, World Resources Institute: USA0007369, EIA: 7368",,L100000700118,G100000700195,https://gem.wiki/NCPA_geothermal_plant
24.6.2023,United States,NCPA geothermal plant,3,,,55,dry steam,mothballed,,,1985,,Northern California Power Agency,,,,,,38.752,-122.7195,exact,,Lake County,,California,Northern America,Americas,"World Resources Institute: USA0007368, EIA: 7369, World Resources Institute: USA0007369, EIA: 7368",,L100000700118,G100000700515,https://gem.wiki/NCPA_geothermal_plant
24.6.2023,United States,NCPA geothermal plant,4,,,55,dry steam,operating,,,1986,,Northern California Power Agency,,,,,,38.7492,-122.7117,exact,,Lake County,,California,Northern America,Americas,"World Resources Institute: USA0007368, EIA: 7369, World Resources Institute: USA0007369, EIA: 7368",,L100000700118,G100000700516,https://gem.wiki/NCPA_geothermal_plant
13.3.2024,Colombia,Nereidas Valley geothermal power plant,--,Central geotérmica Valle de Nereidas,,30,unknown type,pre-construction,,,,,,,Baker Hughers [33%]; Ecopetrol SA [33%]; Central Hidroeléctrica de Caldas (CHEC) [33%],,,,5.0438,-75.5246,approximate,,,Neridas Valley,Caldas Department,Latin America and the Caribbean,Americas,,,L100000700195,G100000700328,https://gem.wiki/Nereidas_Valley_geothermal_power_plant
2.5.2023,Iceland,Nesjavellir geothermal power station,1,Nesjavallavirkjun,,30,flash steam - single,operating,,,1998,,Orkuveita Reykjavikur,,Orkuveita Reykjavikur [100%],,,,64.1081,-21.2567,exact,,Grímsnes- og Grafningshreppur,Southern Region,,Northern Europe,Europe,World Resources Institute: WRI1002805,,L100000700119,G100000700196,https://gem.wiki/Nesjavellir_geothermal_power_station
2.5.2023,Iceland,Nesjavellir geothermal power station,2,Nesjavallavirkjun,,30,flash steam - single,operating,,,1998,,Orkuveita Reykjavikur,,Orkuveita Reykjavikur [100%],,,,64.1081,-21.2567,exact,,Grímsnes- og Grafningshreppur,Southern Region,,Northern Europe,Europe,World Resources Institute: WRI1002805,,L100000700119,G100000700197,https://gem.wiki/Nesjavellir_geothermal_power_station
2.5.2023,Iceland,Nesjavellir geothermal power station,3,Nesjavallavirkjun,,30,flash steam - single,operating,,,,,Orkuveita Reykjavikur,,Orkuveita Reykjavikur [100%],,,,64.1081,-21.2567,exact,,Grímsnes- og Grafningshreppur,Southern Region,,Northern Europe,Europe,World Resources Institute: WRI1002805,,L100000700119,G100000700198,https://gem.wiki/Nesjavellir_geothermal_power_station
2.5.2023,Iceland,Nesjavellir geothermal power station,4,Nesjavallavirkjun,,30,flash steam - single,operating,,,2005,,Orkuveita Reykjavikur,,Orkuveita Reykjavikur [100%],,,,64.1081,-21.2567,exact,,Grímsnes- og Grafningshreppur,Southern Region,,Northern Europe,Europe,World Resources Institute: WRI1002805,,L100000700119,G100000700199,https://gem.wiki/Nesjavellir_geothermal_power_station
13.3.2024,Saint Kitts and Nevis,Nevis geothermal power plant,Expansion,,,30,unknown type,announced,,,,,,,Nevis Island Administration (NIA) [50%]; Nevis Electric Company Limited (NEVLEC) [50%],,,,17.1421,-62.6062,exact,Charlestown,Hamilton Estate,,,Latin America and the Caribbean,Americas,,,L100000700237,G100000700426,https://gem.wiki/Nevis_geothermal_power_plant
15.5.2023,United States,New York Canyon geothermal plant,--,,,70,unknown type,cancelled - inferred 4 y,,,,,,,TGP Dixie Development Company [100%],,,,40.1847,-118.4738,approximate,Lovelock,Pershing County,,Nevada,Northern America,Americas,,,L100000700120,G100000700200,https://gem.wiki/New_York_Canyon_geothermal_plant
2.5.2023,New Zealand,Nga Awa Purua geothermal power plant,--,,"Rotokawa II, Taonga",140,flash steam - triple,operating,,,2010,,Mercury NZ LTD,,Tauhara North 2 Trust [25%]; Mighty River Power [75%],,,,-38.6143,176.1825,exact,,Taupō District,,Waikato,Australia and New Zealand,Oceania,World Resources Institute: WRI1000326,,L100000700121,G100000700201,https://gem.wiki/Nga_Awa_Purua_geothermal_power_plant
1.4.2024,New Zealand,Ngatamariki geothermal power plant,5,,Ngā Tamariki Geothermal System,50,binary cycle,construction,,,2025,,,,,,,,-38.5731,176.1953,exact,,Taupō District,,Waikato,Australia and New Zealand,Oceania,,,L100000700122,G100001005324,https://gem.wiki/Ngatamariki_geothermal_power_plant
2.5.2023,New Zealand,Ngāwhā geothermal power station,--,,"Ngawha-2, OEC4",32,unknown type,operating,,,2021,,Top Energy LTD,,Top Energy LTD [100%],,,,-35.4176,173.8522,exact,Kaikohe-Hokianga Community,Far North District,,Northland,Australia and New Zealand,Oceania,,,L100000700123,G100000700203,https://gem.wiki/Ngāwhā_geothermal_power_station
13.3.2024,Indonesia,Ngebel geothermal power plant,1,,Wilis-Ngebel,55,unknown type,pre-construction,,,,,,,Oakridge International [65%]; PT Bakrie Power [34%],,,,-7.7761,111.6374,exact,,Ponorogo,,East Java,South-eastern Asia,Asia,,,L100000700207,G100000700359,https://gem.wiki/Ngebel_geothermal_power_plant
13.3.2024,Indonesia,Ngebel geothermal power plant,2,,Wilis-Ngebel,55,unknown type,pre-construction,,,,,,,Oakridge International [65%]; PT Bakrie Power [34%],,,,-7.7761,111.6374,exact,,Ponorogo,,East Java,South-eastern Asia,Asia,,,L100000700207,G100000700360,https://gem.wiki/Ngebel_geothermal_power_plant
13.3.2024,Indonesia,Ngebel geothermal power plant,3,,Wilis-Ngebel,55,unknown type,pre-construction,,,,,,,Oakridge International [65%]; PT Bakrie Power [34%],,,,-7.7761,111.6374,exact,,Ponorogo,,East Java,South-eastern Asia,Asia,,,L100000700207,G100000700361,https://gem.wiki/Ngebel_geothermal_power_plant
13.3.2024,Tanzania,Ngozi geothermal power plant,Future units,,Ngozi Field,400,unknown type,announced,,,2027,,,,Tanzania Geothermal Development Company (TGDC) [100%],,,,-9.2556,33.6434,approximate,,,Rungwe District,Mbeya Region,Sub-Saharan Africa,Africa,,,L100000700240,G100000700430,https://gem.wiki/Ngozi_geothermal_power_plant
13.3.2024,Tanzania,Ngozi geothermal power plant,1,,Ngozi Field,200,unknown type,pre-construction,,,2027,,,,Tanzania Geothermal Development Company (TGDC) [100%],,,,-9.2556,33.6434,approximate,,,Rungwe District,Mbeya Region,Sub-Saharan Africa,Africa,,,L100000700240,G100000700429,https://gem.wiki/Ngozi_geothermal_power_plant
16.5.2023,Philippines,Northern Negros geothermal power plant,--,,,50,flash steam - single,retired,,,,2013,Energy Development CORP (EDC),,Energy Development CORP (EDC) [100%],,,,10.484,123.1017,exact,Bago,,,Negros Occidental,South-eastern Asia,Asia,,,L100000700125,G100000700205,https://gem.wiki/Northern_Negros_geothermal_power_plant
14.3.2024,United States,Northern Nevada (Ormat) geothermal power plant,--,,,120,unknown type,announced,,,2028,,,,Ormat Technology INC [100%],,,,39.7012,-118.9434,approximate,,Churchill County,,Nevada,Northern America,Americas,,,L100000700282,G100000700521,https://gem.wiki/Northern_Nevada_(Ormat)_geothermal_power_plant
2.5.2023,Italy,Nuova Radicondoli geothermal power plant,--,Centrale geotermica Nuova Radicondoli,,40,dry steam,operating,,,2002,,Enel Green Power,,Enel Green Power [100%],,,,43.1935,11.0446,exact,,Siena,,Tuscany,Southern Europe,Europe,World Resources Institute: WRI1021348,,L100000700126,G100000700206,https://gem.wiki/Nuova_Radicondoli_geothermal_power_plant
2.5.2023,Italy,Nuova San Martino geothermal power plant,--,Centrale geotermica Nuova San Martino,,40,dry steam,operating,,,2005,,Enel Green Power,,Enel Green Power [100%],,,,43.1452,10.8325,exact,,Grosseto,,Tuscany,Southern Europe,Europe,World Resources Institute: WRI1021455,,L100000700127,G100000700207,https://gem.wiki/Nuova_San_Martino_geothermal_power_plant
2.5.2023,Italy,Nuova Serrazzano geothermal power plant,--,Centrale geotermica Nuova Serrazzano,,60,dry steam,operating,,,2002,,Enel Green Power,,Enel Green Power [100%],,,,43.204,10.8003,exact,,Pisa,,Tuscany,Southern Europe,Europe,World Resources Institute: WRI1021382,,L100000700128,G100000700208,https://gem.wiki/Nuova_Serrazzano_geothermal_power_plant
2.5.2023,New Zealand,Ohaaki geothermal power plant,--,,,104,flash steam - single,operating,,,1989,,Contact Energy LTD,,Contact Energy LTD [100%],,,,-38.5279,176.2937,exact,,Taupō District,,Waikato,Australia and New Zealand,Oceania,World Resources Institute: WRI1000332,,L100000700129,G100000700209,https://gem.wiki/Ohaaki_geothermal_power_plant
2.5.2023,Kenya,Olkaria 1 geothermal power plant,6,,,83,unknown type,operating,,,2022,,Kenya Electricity Generating Company,,Kenya Electricity Generating Company PLC,,,,-0.8893,36.2557,exact,,Naivasha,,Nakuru,Sub-Saharan Africa,Africa,"World Resources Institute: WRI1061219, World Resources Institute: Wri1000048, World Resources Institute: Wri1061218",,L100000700130,G100000700212,https://gem.wiki/Olkaria_1_geothermal_power_plant
2.5.2023,Kenya,Olkaria 1 geothermal power plant,4,,,70,unknown type,operating,,,2015,,Kenya Electricity Generating Company,,Kenya Electricity Generating Company PLC,,,,-0.891,36.2961,exact,,Naivasha,,Nakuru,Sub-Saharan Africa,Africa,"World Resources Institute: WRI1061219, World Resources Institute: Wri1000048, World Resources Institute: Wri1061218",,L100000700130,G100000700210,https://gem.wiki/Olkaria_1_geothermal_power_plant
2.5.2023,Kenya,Olkaria 1 geothermal power plant,5,,,70,unknown type,operating,,,2015,,Kenya Electricity Generating Company,,Kenya Electricity Generating Company PLC,,,,-0.891,36.2961,exact,,Naivasha,,Nakuru,Sub-Saharan Africa,Africa,"World Resources Institute: WRI1061219, World Resources Institute: Wri1000048, World Resources Institute: Wri1061218",,L100000700130,G100000700211,https://gem.wiki/Olkaria_1_geothermal_power_plant
2.5.2023,Kenya,Olkaria 2 geothermal power plant,1,,,35,flash steam - single,operating,,,2003,,Kenya Electricity Generating Company,,Kenya Electricity Generating Company PLC,,,,-0.8644,36.2985,exact,,Naivasha,,Nakuru,Sub-Saharan Africa,Africa,World Resources Institute: WRI1061221,,L100000700131,G100000700213,https://gem.wiki/Olkaria_2_geothermal_power_plant
2.5.2023,Kenya,Olkaria 2 geothermal power plant,2,,,35,flash steam - single,operating,,,2003,,Kenya Electricity Generating Company,,Kenya Electricity Generating Company PLC,,,,-0.8644,36.2985,exact,,Naivasha,,Nakuru,Sub-Saharan Africa,Africa,World Resources Institute: WRI1061221,,L100000700131,G100000700214,https://gem.wiki/Olkaria_2_geothermal_power_plant
2.5.2023,Kenya,Olkaria 2 geothermal power plant,3,,,35,flash steam - single,operating,,,2010,,Kenya Electricity Generating Company,,Kenya Electricity Generating Company PLC,,,,-0.8644,36.2985,exact,,Naivasha,,Nakuru,Sub-Saharan Africa,Africa,World Resources Institute: WRI1061221,,L100000700131,G100000700215,https://gem.wiki/Olkaria_2_geothermal_power_plant
2.5.2023,Kenya,Olkaria 3 geothermal power plant,1,,,59,binary cycle,operating,,,2000,,Ormat Technology INC,,Ormat Technology INC [100%],,,,-0.889,36.2562,exact,,Naivasha,,Nakuru,Sub-Saharan Africa,Africa,World Resources Institute: WRI1061220,,L100000700132,G100000700216,https://gem.wiki/Olkaria_3_geothermal_power_plant
2.5.2023,Kenya,Olkaria 3 geothermal power plant,2,,,36,binary cycle,operating,,,2009,,Ormat Technology INC,,Ormat Technology INC [100%],,,,-0.889,36.2562,exact,,Naivasha,,Nakuru,Sub-Saharan Africa,Africa,World Resources Institute: WRI1061220,,L100000700132,G100000700217,https://gem.wiki/Olkaria_3_geothermal_power_plant
2.5.2023,Kenya,Olkaria 4 geothermal power plant,1,,,70,flash steam - single,operating,,,2014,,Kenya Electricity Generating Company,,Kenya Electricity Generating Company PLC,,,,-0.9186,36.3338,exact,,Naivasha,,Nakuru,Sub-Saharan Africa,Africa,World Resources Institute: WRI1061217,,L100000700133,G100000700218,https://gem.wiki/Olkaria_4_geothermal_power_plant
2.5.2023,Kenya,Olkaria 4 geothermal power plant,2,,,70,flash steam - single,operating,,,2014,,Kenya Electricity Generating Company,,Kenya Electricity Generating Company PLC,,,,-0.9186,36.3338,exact,,Naivasha,,Nakuru,Sub-Saharan Africa,Africa,World Resources Institute: WRI1061217,,L100000700133,G100000700219,https://gem.wiki/Olkaria_4_geothermal_power_plant
2.5.2023,Kenya,Olkaria 5 geothermal power plant,1,,,82,flash steam - single,operating,,,2019,,Kenya Electricity Generating Company,,Kenya Electricity Generating Company PLC,,,,-0.907,36.3232,exact,,Naivasha,,Nakuru,Sub-Saharan Africa,Africa,,,L100000700134,G100000700220,https://gem.wiki/Olkaria_5_geothermal_power_plant
2.5.2023,Kenya,Olkaria 5 geothermal power plant,2,,,82,flash steam - single,operating,,,2019,,Kenya Electricity Generating Company,,Kenya Electricity Generating Company PLC,,,,-0.907,36.3232,exact,,Naivasha,,Nakuru,Sub-Saharan Africa,Africa,,,L100000700134,G100000700221,https://gem.wiki/Olkaria_5_geothermal_power_plant
14.3.2024,Kenya,Olkaria 6 geothermal power plant,Future units,,,420,unknown type,shelved - inferred 2 y,,,,,Kenya Electricity Generating Company,,Kenya Electricity Generating Company PLC,,,,-0.8644,36.2985,approximate,,Sulmac Village,,Nakuru,Sub-Saharan Africa,Africa,,,L100000700135,G100000700223,https://gem.wiki/Olkaria_6_geothermal_power_plant
14.3.2024,Kenya,Olkaria 6 geothermal power plant,1,,,140,unknown type,shelved - inferred 2 y,,,,,Kenya Electricity Generating Company,,Kenya Electricity Generating Company PLC,,,,-0.8644,36.2985,approximate,,Sulmac Village,,Nakuru,Sub-Saharan Africa,Africa,,,L100000700135,G100000700222,https://gem.wiki/Olkaria_6_geothermal_power_plant
14.3.2024,Kenya,Olkaria 7 geothermal power plant,--,,,140,unknown type,announced,,,,,Kenya Electricity Generating Company,,Kenya Electricity Generating Company PLC,,,,-0.8644,36.2985,approximate,,Nakuru County,,,Sub-Saharan Africa,Africa,,,L100000700218,G100000700389,https://gem.wiki/Olkaria_7_geothermal_power_plant
3.5.2023,Philippines,Palinpinon 1 geothermal power plant,1,,,38,flash steam - single,operating,,,1983,,Energy Development CORP (EDC),,Energy Development CORP (EDC) [100%],,,,9.295,123.1723,exact,,,,Negros Oriental,South-eastern Asia,Asia,World Resources Institute: WRI1001941,,L100000700136,G100000700224,https://gem.wiki/Palinpinon_1_geothermal_power_plant
3.5.2023,Philippines,Palinpinon 1 geothermal power plant,2,,,38,flash steam - single,operating,,,1983,,Energy Development CORP (EDC),,Energy Development CORP (EDC) [100%],,,,9.295,123.1723,exact,,,,Negros Oriental,South-eastern Asia,Asia,World Resources Institute: WRI1001941,,L100000700136,G100000700225,https://gem.wiki/Palinpinon_1_geothermal_power_plant
3.5.2023,Philippines,Palinpinon 1 geothermal power plant,3,,,38,flash steam - single,operating,,,1983,,Energy Development CORP (EDC),,Energy Development CORP (EDC) [100%],,,,9.295,123.1723,exact,,,,Negros Oriental,South-eastern Asia,Asia,World Resources Institute: WRI1001941,,L100000700136,G100000700226,https://gem.wiki/Palinpinon_1_geothermal_power_plant
4.5.2023,Türkiye,PamukÖren geothermal power plant,6,,,32,binary cycle,operating,,,2019,,,,Celikler Holding [100%],,,,37.9167,28.5305,exact,,Kuyucak,,,Western Asia,Asia,"World Resources Institute: Wri1018952, World Resources Institute: Wri1018954, World Resources Institute: Wri1018953, World Resources Institute: WRI1018956, World Resources Institute: Wri1018951, World Resources Institute: Wri1018955",,L100000700137,G100000700227,https://gem.wiki/PamukÖren_geothermal_power_plant
3.5.2023,United States,Patua geothermal project,--,,,48,binary cycle,operating,,,2012,,Cyrq Energy,,Cyrq Energy [100%],,,,39.583,-119.0737,exact,,Churchill County,,Nevada,Northern America,Americas,"World Resources Institute: USA0058319, EIA: 58319",,L100000700138,G100000700228,https://gem.wiki/Patua_geothermal_project
13.3.2024,Indonesia,Patuha geothermal power plant,Future units,,,290,unknown type,announced,,,2030,,PT Geo Dipa Energi (GDE),,PT Geo Dipa Energi (GDE) [100%],,,,-7.1838,107.4215,exact,,Bandung,,West Java,South-eastern Asia,Asia,,,L100000700139,G100000700232,https://gem.wiki/Patuha_geothermal_power_plant
9.5.2023,Indonesia,Patuha geothermal power plant,1,,,55,flash steam - single,operating,,,2014,,PT Geo Dipa Energi (GDE),,PT Geo Dipa Energi (GDE) [100%],,,,-7.1838,107.4215,exact,,Bandung,Bandung Regency,West Java,South-eastern Asia,Asia,,,L100000700139,G100000700229,https://gem.wiki/Patuha_geothermal_power_plant
13.3.2024,Indonesia,Patuha geothermal power plant,2,,,55,unknown type,construction,,,2025,,PT Geo Dipa Energi (GDE),,PT Geo Dipa Energi (GDE) [100%],,,,-7.1838,107.4215,exact,,Bandung,,West Java,South-eastern Asia,Asia,,,L100000700139,G100000700230,https://gem.wiki/Patuha_geothermal_power_plant
13.3.2024,Indonesia,Patuha geothermal power plant,3,,,55,unknown type,announced,,,2025,,PT Geo Dipa Energi (GDE),,PT Geo Dipa Energi (GDE) [100%],,,,-7.1838,107.4215,exact,,Bandung,,West Java,South-eastern Asia,Asia,,,L100000700139,G100000700231,https://gem.wiki/Patuha_geothermal_power_plant
2.5.2023,Honduras,Platanares geothermal power plant,--,Central geotérmica Platanares,,35,binary cycle,operating,,,2017,,Ormat Technology INC,,Ormat Technology INC [100%],,,,14.7471,-88.9518,exact,,La Unión,,Copán,Latin America and the Caribbean,Americas,World Resources Institute: WRI1029382,,L100000700140,G100000700233,https://gem.wiki/Platanares_geothermal_power_plant
2.5.2023,New Zealand,Poihipi Road geothermal power station,--,,,50,flash steam - single,operating,,,1997,,Contact Energy LTD,,Contact Energy LTD [100%],,,,-38.6298,176.0413,exact,,Taupō District,,Waikato,Australia and New Zealand,Oceania,,,L100000700141,G100000700234,https://gem.wiki/Poihipi_Road_geothermal_power_station
15.5.2023,United States,Pumpernickel geothermal plant,--,,,33,binary cycle,cancelled - inferred 4 y,,,,,,,Nevada Geothermal Power CO [100%],,,,40.838,-117.3835,approximate,,Pumpernickel Valley,,Nevada,Northern America,Americas,,,L100000700142,G100000700235,https://gem.wiki/Pumpernickel_geothermal_plant
14.3.2024,United States,Puna geothermal power plant,1,,,38,binary cycle,pre-construction,,,,,Puna Geothermal Venture,,Puna Geothermal Venture [100%],,,,19.4767,-154.8908,exact,,Hawaiʻi County,,Hawaii,Northern America,Americas,,,L100000700283,G100000700522,https://gem.wiki/Puna_geothermal_power_plant
3.5.2023,United States,Quicksilver geothermal plant,16,,Geysers geothermal plant U16,118,dry steam,operating,,,1985,,Geysers Power Co LLC,,Calpine CORP [100%],,,,38.777,-122.745,exact,,Sonoma County,,California,Northern America,Americas,"EIA: 286, World Resources Institute: USA0000286",,L100000700143,G100000700236,https://gem.wiki/Quicksilver_geothermal_plant
13.3.2024,Indonesia,Rajabasa geothermal power plant,1,,,110,unknown type,construction,,,2025,,PT Supreme Energy,,ENGIE [33%]; PT Supreme Energy [33%]; Sumitomo Corp [33%],住友商事株式会社,,,-5.7817,105.6256,approximate,,Gunung Rajabasa,South Lampung Regency,Lampung Province,South-eastern Asia,Asia,,,L100000700144,G100000700237,https://gem.wiki/Rajabasa_geothermal_power_plant
13.3.2024,Indonesia,Rajabasa geothermal power plant,2,,,110,unknown type,construction,,,2025,,PT Supreme Energy,,ENGIE [33%]; PT Supreme Energy [33%]; Sumitomo Corp [33%],住友商事株式会社,,,-5.7817,105.6256,approximate,,Gunung Rajabasa,South Lampung Regency,Lampung Province,South-eastern Asia,Asia,,,L100000700144,G100000700238,https://gem.wiki/Rajabasa_geothermal_power_plant
16.5.2023,Philippines,Rangas geothermal power plant,--,,,40,unknown type,cancelled - inferred 4 y,,,,,Energy Development CORP (EDC),,Energy Development CORP (EDC) [100%],,,,12.8025,124.0009,approximate,,Rangas,Sorsogon,Bicol,South-eastern Asia,Asia,,,L100000700145,G100000700239,https://gem.wiki/Rangas_geothermal_power_plant
13.3.2024,Indonesia,Rantau Dedep geothermal power plant,2,,,134,unknown type,pre-construction,,,2025,,,,,,,,-4.2069,103.3857,approximate,,,Lahat Regency,South Sumatra,South-eastern Asia,Asia,,,L100000700146,G100000700364,https://gem.wiki/Rantau_Dedep_geothermal_power_plant
8.5.2023,Indonesia,Rantau Dedep geothermal power plant,1,,,91,unknown type,operating,,,2021,,PT Supreme Energy Rantau Dedap,,Tohoku Electric Power CO INC [10%]; PT Supreme Energy [25%]; Marubeni CORP [27%]; ENGIE [37%],,,,-4.2069,103.3857,exact,Swarna Dwipa,Muara Enim,,South Sumatra,South-eastern Asia,Asia,,,L100000700146,G100000700240,https://gem.wiki/Rantau_Dedep_geothermal_power_plant
13.3.2024,Indonesia,Ratai geothermal power plant,--,,Way Ratai,55,unknown type,announced,,,,,,,,,,,-5.6001,105.0738,approximate,,Way Ratai,,Lampung Province,South-eastern Asia,Asia,,,L100000700147,G100000700241,https://gem.wiki/Ratai_geothermal_power_plant
13.3.2024,Indonesia,Rawa Dano geothermal power plant,1,,,55,unknown type,pre-construction,,,2026,,PT Sintesa Banten Geothermal,,PT Sintesa Banten Geothermal [100%],,,,-6.1619,105.9835,approximate,,,,Banten,South-eastern Asia,Asia,,,L100000700209,G100000700365,https://gem.wiki/Rawa_Dano_geothermal_power_plant
13.3.2024,Indonesia,Rawa Dano geothermal power plant,Future units,,,55,unknown type,pre-construction,,,2026,,PT Sintesa Banten Geothermal,,PT Sintesa Banten Geothermal [100%],,,,-6.1619,105.9835,approximate,,,,Banten,South-eastern Asia,Asia,,,L100000700209,G100000700366,https://gem.wiki/Rawa_Dano_geothermal_power_plant
